[
    {
        "name": "祖田市民活動中心",
        "address": "中央路四段２８３之１號２樓",
        "neighborhood": "祖田里",
        "location": {
            "lat": 24.953947,
            "lng": 121.412755
        }
    },
    {
        "name": "頂新里市民活動中心",
        "address": "中央路四段２８３之１號",
        "neighborhood": "頂新里",
        "location": {
            "lat": 24.953947,
            "lng": 121.412755
        }
    },
    {
        "name": "原住民巿民活動中心",
        "address": "中央路四段２８３之１號",
        "neighborhood": "頂新里",
        "location": {
            "lat": 24.953947,
            "lng": 121.412755
        }
    },
    {
        "name": "頂埔國小",
        "address": "中央路四段２０５號",
        "neighborhood": "頂福里",
        "location": {
            "lat": 24.9562302,
            "lng": 121.4144033
        }
    },
    {
        "name": "頂埔國小",
        "address": "中央路四段２０５號",
        "neighborhood": "頂福里",
        "location": {
            "lat": 24.9562302,
            "lng": 121.4144033
        }
    },
    {
        "name": "頂福社區活動中心",
        "address": "中州路２８巷２８號",
        "neighborhood": "頂福里",
        "location": {
            "lat": 24.9579064,
            "lng": 121.4147337
        }
    },
    {
        "name": "頂埔市民活動中心1樓",
        "address": "中央路四段５５之１２號１樓",
        "neighborhood": "頂埔里",
        "location": {
            "lat": 24.9585185,
            "lng": 121.4175473
        }
    },
    {
        "name": "頂埔巿民活動中心1樓",
        "address": "中央路四段５５之１２號１樓",
        "neighborhood": "頂埔里",
        "location": {
            "lat": 24.9585185,
            "lng": 121.4175473
        }
    },
    {
        "name": "頂埔巿民活動中心2樓",
        "address": "中央路四段５５之１２號２樓",
        "neighborhood": "頂埔里",
        "location": {
            "lat": 24.9585185,
            "lng": 121.4175473
        }
    },
    {
        "name": "沛陂巿民活動中心1樓",
        "address": "三民路２３巷８弄９號１樓(沛陂社區公園內)",
        "neighborhood": "沛陂里",
        "location": {
            "lat": 25.01849,
            "lng": 121.479449
        }
    },
    {
        "name": "沛陂巿民活動中心2樓",
        "address": "三民路２３巷８弄９號２樓(沛陂社區公園內)",
        "neighborhood": "沛陂里",
        "location": {
            "lat": 25.01849,
            "lng": 121.479449
        }
    },
    {
        "name": "沛陂里社區活動中心",
        "address": "福安街１５號",
        "neighborhood": "沛陂里",
        "location": {
            "lat": 24.9650996,
            "lng": 121.4201219
        }
    },
    {
        "name": "土城國中",
        "address": "永寧路１８號",
        "neighborhood": "永寧里",
        "location": {
            "lat": 24.9625224,
            "lng": 121.4301923
        }
    },
    {
        "name": "土城國中",
        "address": "永寧路１８號",
        "neighborhood": "永寧里",
        "location": {
            "lat": 24.9625224,
            "lng": 121.4301923
        }
    },
    {
        "name": "土城國中",
        "address": "永寧路１８號",
        "neighborhood": "永寧里",
        "location": {
            "lat": 24.9625224,
            "lng": 121.4301923
        }
    },
    {
        "name": "土城國中",
        "address": "永寧路１８號",
        "neighborhood": "永寧里",
        "location": {
            "lat": 24.9625224,
            "lng": 121.4301923
        }
    },
    {
        "name": "土城國中",
        "address": "永寧路１８號",
        "neighborhood": "永寧里",
        "location": {
            "lat": 24.9625224,
            "lng": 121.4301923
        }
    },
    {
        "name": "大安集會所",
        "address": "中央路三段１３４號",
        "neighborhood": "大安里",
        "location": {
            "lat": 24.9658498,
            "lng": 121.4345556
        }
    },
    {
        "name": "臺北市政府捷運工程局北區工程處第五土木工務所",
        "address": "承天路２號(永寧站２號出口前之工務所)",
        "neighborhood": "大安里",
        "location": {
            "lat": 0,
            "lng": 0
        }
    },
    {
        "name": "南天母新城社區會議室",
        "address": "南天母路６７號",
        "neighborhood": "大安里",
        "location": {
            "lat": 24.9534409,
            "lng": 121.4476723
        }
    },
    {
        "name": "土城國小",
        "address": "興城路１７號",
        "neighborhood": "員仁里",
        "location": {
            "lat": 24.9712098,
            "lng": 121.4424389
        }
    },
    {
        "name": "土城國小",
        "address": "興城路１７號",
        "neighborhood": "員仁里",
        "location": {
            "lat": 24.9712098,
            "lng": 121.4424389
        }
    },
    {
        "name": "員仁社區活動中心(左側)",
        "address": "中華路二段９０號",
        "neighborhood": "員仁里",
        "location": {
            "lat": 24.9746513,
            "lng": 121.4382617
        }
    },
    {
        "name": "員仁社區活動中心(右側)",
        "address": "中華路二段９０號",
        "neighborhood": "員仁里",
        "location": {
            "lat": 24.9746513,
            "lng": 121.4382617
        }
    },
    {
        "name": "土城國小",
        "address": "興城路１７號",
        "neighborhood": "埤塘里",
        "location": {
            "lat": 24.9712098,
            "lng": 121.4424389
        }
    },
    {
        "name": "土城國小",
        "address": "興城路１７號",
        "neighborhood": "埤塘里",
        "location": {
            "lat": 24.9712098,
            "lng": 121.4424389
        }
    },
    {
        "name": "土城國小",
        "address": "興城路１７號",
        "neighborhood": "埤塘里",
        "location": {
            "lat": 24.9712098,
            "lng": 121.4424389
        }
    },
    {
        "name": "土城國小",
        "address": "興城路１７號",
        "neighborhood": "土城里",
        "location": {
            "lat": 24.9712098,
            "lng": 121.4424389
        }
    },
    {
        "name": "土城國小",
        "address": "興城路１７號",
        "neighborhood": "土城里",
        "location": {
            "lat": 24.9712098,
            "lng": 121.4424389
        }
    },
    {
        "name": "長風巿民活動中心",
        "address": "順風路２７號",
        "neighborhood": "長風里",
        "location": {
            "lat": 24.9767699,
            "lng": 121.440311
        }
    },
    {
        "name": "土城國小",
        "address": "興城路１７號",
        "neighborhood": "員信里",
        "location": {
            "lat": 24.9712098,
            "lng": 121.4424389
        }
    },
    {
        "name": "土城國小",
        "address": "興城路１７號",
        "neighborhood": "員信里",
        "location": {
            "lat": 24.9712098,
            "lng": 121.4424389
        }
    },
    {
        "name": "土城國小",
        "address": "興城路１７號",
        "neighborhood": "員信里",
        "location": {
            "lat": 24.9712098,
            "lng": 121.4424389
        }
    },
    {
        "name": "土城國小",
        "address": "興城路１７號",
        "neighborhood": "員林里",
        "location": {
            "lat": 24.9712098,
            "lng": 121.4424389
        }
    },
    {
        "name": "土城國小",
        "address": "興城路１７號",
        "neighborhood": "員林里",
        "location": {
            "lat": 24.9712098,
            "lng": 121.4424389
        }
    },
    {
        "name": "土城國小",
        "address": "興城路１７號",
        "neighborhood": "員林里",
        "location": {
            "lat": 24.9712098,
            "lng": 121.4424389
        }
    },
    {
        "name": "土城國小",
        "address": "興城路１７號",
        "neighborhood": "員林里",
        "location": {
            "lat": 24.9712098,
            "lng": 121.4424389
        }
    },
    {
        "name": "土城國小",
        "address": "興城路１７號",
        "neighborhood": "員福里",
        "location": {
            "lat": 24.9712098,
            "lng": 121.4424389
        }
    },
    {
        "name": "土城國小",
        "address": "興城路１７號",
        "neighborhood": "員福里",
        "location": {
            "lat": 24.9712098,
            "lng": 121.4424389
        }
    },
    {
        "name": "土城國小",
        "address": "興城路１７號",
        "neighborhood": "員福里",
        "location": {
            "lat": 24.9712098,
            "lng": 121.4424389
        }
    },
    {
        "name": "土城國小",
        "address": "興城路１７號",
        "neighborhood": "員福里",
        "location": {
            "lat": 24.9712098,
            "lng": 121.4424389
        }
    },
    {
        "name": "樂利國小",
        "address": "裕生路６５號",
        "neighborhood": "日和里",
        "location": {
            "lat": 24.9845662,
            "lng": 121.4470228
        }
    },
    {
        "name": "樂利國小",
        "address": "裕生路６５號",
        "neighborhood": "日和里",
        "location": {
            "lat": 24.9845662,
            "lng": 121.4470228
        }
    },
    {
        "name": "樂利國小",
        "address": "裕生路６５號",
        "neighborhood": "日和里",
        "location": {
            "lat": 24.9845662,
            "lng": 121.4470228
        }
    },
    {
        "name": "樂利國小",
        "address": "裕生路６５號",
        "neighborhood": "日和里",
        "location": {
            "lat": 24.9845662,
            "lng": 121.4470228
        }
    },
    {
        "name": "樂利國小",
        "address": "裕生路６５號",
        "neighborhood": "日新里",
        "location": {
            "lat": 24.9845662,
            "lng": 121.4470228
        }
    },
    {
        "name": "樂利國小",
        "address": "裕生路６５號",
        "neighborhood": "日新里",
        "location": {
            "lat": 24.9845662,
            "lng": 121.4470228
        }
    },
    {
        "name": "日新巿民活動中心",
        "address": "裕生路１００巷５號",
        "neighborhood": "日新里",
        "location": {
            "lat": 24.9850508,
            "lng": 121.4462309
        }
    },
    {
        "name": "莒光四村活動中心",
        "address": "中央路一段１８９巷２號",
        "neighborhood": "裕生里",
        "location": {
            "lat": 24.986833,
            "lng": 121.446224
        }
    },
    {
        "name": "樂利國小",
        "address": "裕生路６５號",
        "neighborhood": "裕生里",
        "location": {
            "lat": 24.9845662,
            "lng": 121.4470228
        }
    },
    {
        "name": "樂利國小",
        "address": "裕生路６５號",
        "neighborhood": "裕生里",
        "location": {
            "lat": 24.9845662,
            "lng": 121.4470228
        }
    },
    {
        "name": "樂利國小",
        "address": "裕生路６５號",
        "neighborhood": "裕生里",
        "location": {
            "lat": 24.9845662,
            "lng": 121.4470228
        }
    },
    {
        "name": "樂利國小",
        "address": "裕生路６５號",
        "neighborhood": "貨饒里",
        "location": {
            "lat": 24.9845662,
            "lng": 121.4470228
        }
    },
    {
        "name": "樂利國小",
        "address": "裕生路６５號",
        "neighborhood": "貨饒里",
        "location": {
            "lat": 24.9845662,
            "lng": 121.4470228
        }
    },
    {
        "name": "樂利國小",
        "address": "裕生路６５號",
        "neighborhood": "貨饒里",
        "location": {
            "lat": 24.9845662,
            "lng": 121.4470228
        }
    },
    {
        "name": "信義國小",
        "address": "四川路二段２４５巷６０號",
        "neighborhood": "瑞興里",
        "location": {
            "lat": 24.9917854,
            "lng": 121.4526816
        }
    },
    {
        "name": "信義國小",
        "address": "四川路二段２４５巷６０號",
        "neighborhood": "瑞興里",
        "location": {
            "lat": 24.9917854,
            "lng": 121.4526816
        }
    },
    {
        "name": "信義國小",
        "address": "四川路二段２４５巷６０號",
        "neighborhood": "復興里",
        "location": {
            "lat": 24.9917854,
            "lng": 121.4526816
        }
    },
    {
        "name": "信義國小",
        "address": "四川路二段２４５巷６０號",
        "neighborhood": "復興里",
        "location": {
            "lat": 24.9917854,
            "lng": 121.4526816
        }
    },
    {
        "name": "信義國小",
        "address": "四川路二段２４５巷６０號",
        "neighborhood": "復興里",
        "location": {
            "lat": 24.9917854,
            "lng": 121.4526816
        }
    },
    {
        "name": "廣福國小",
        "address": "學府路一段１２７號",
        "neighborhood": "廣福里",
        "location": {
            "lat": 24.9868018,
            "lng": 121.454677
        }
    },
    {
        "name": "廣福國小",
        "address": "學府路一段１２７號",
        "neighborhood": "廣福里",
        "location": {
            "lat": 24.9868018,
            "lng": 121.454677
        }
    },
    {
        "name": "廣福巿民活動中心",
        "address": "學府路一段９９巷底",
        "neighborhood": "廣福里",
        "location": {
            "lat": 24.9871133,
            "lng": 121.4566783
        }
    },
    {
        "name": "廣福國小",
        "address": "學府路一段１２７號",
        "neighborhood": "學成里",
        "location": {
            "lat": 24.9868018,
            "lng": 121.454677
        }
    },
    {
        "name": "學成巿民活動中心",
        "address": "學成路９７巷８號",
        "neighborhood": "學成里",
        "location": {
            "lat": 24.9884577,
            "lng": 121.4501882
        }
    },
    {
        "name": "廣福國小",
        "address": "學府路一段１２７號",
        "neighborhood": "埤林里",
        "location": {
            "lat": 24.9868018,
            "lng": 121.454677
        }
    },
    {
        "name": "廣福國小",
        "address": "學府路一段１２７號",
        "neighborhood": "埤林里",
        "location": {
            "lat": 24.9868018,
            "lng": 121.454677
        }
    },
    {
        "name": "廣福國小",
        "address": "學府路一段１２７號",
        "neighborhood": "埤林里",
        "location": {
            "lat": 24.9868018,
            "lng": 121.454677
        }
    },
    {
        "name": "廣福國小",
        "address": "學府路一段１２７號",
        "neighborhood": "埤林里",
        "location": {
            "lat": 24.9868018,
            "lng": 121.454677
        }
    },
    {
        "name": "廣福國小",
        "address": "學府路一段１２７號",
        "neighborhood": "埤林里",
        "location": {
            "lat": 24.9868018,
            "lng": 121.454677
        }
    },
    {
        "name": "廣福國小",
        "address": "學府路一段１２７號",
        "neighborhood": "廣興里",
        "location": {
            "lat": 24.9868018,
            "lng": 121.454677
        }
    },
    {
        "name": "廣福國小",
        "address": "學府路一段１２７號",
        "neighborhood": "廣興里",
        "location": {
            "lat": 24.9868018,
            "lng": 121.454677
        }
    },
    {
        "name": "樂利國小",
        "address": "裕生路６５號",
        "neighborhood": "樂利里",
        "location": {
            "lat": 24.9845662,
            "lng": 121.4470228
        }
    },
    {
        "name": "樂利國小",
        "address": "裕生路６５號",
        "neighborhood": "樂利里",
        "location": {
            "lat": 24.9845662,
            "lng": 121.4470228
        }
    },
    {
        "name": "樂利國小",
        "address": "裕生路６５號",
        "neighborhood": "樂利里",
        "location": {
            "lat": 24.9845662,
            "lng": 121.4470228
        }
    },
    {
        "name": "廣福國小",
        "address": "學府路一段１２７號",
        "neighborhood": "學府里",
        "location": {
            "lat": 24.9868018,
            "lng": 121.454677
        }
    },
    {
        "name": "海山高工",
        "address": "學府路一段２４１號",
        "neighborhood": "學府里",
        "location": {
            "lat": 24.9839456,
            "lng": 121.4509434
        }
    },
    {
        "name": "海山高工",
        "address": "學府路一段２４１號",
        "neighborhood": "明德里",
        "location": {
            "lat": 24.9839456,
            "lng": 121.4509434
        }
    },
    {
        "name": "海山高工",
        "address": "學府路一段２４１號",
        "neighborhood": "明德里",
        "location": {
            "lat": 24.9839456,
            "lng": 121.4509434
        }
    },
    {
        "name": "海山高工",
        "address": "學府路一段２４１號",
        "neighborhood": "明德里",
        "location": {
            "lat": 24.9839456,
            "lng": 121.4509434
        }
    },
    {
        "name": "中正國中",
        "address": "金城路二段２４７號",
        "neighborhood": "學士里",
        "location": {
            "lat": 24.9835198,
            "lng": 121.4567578
        }
    },
    {
        "name": "中正國中",
        "address": "金城路二段２４７號",
        "neighborhood": "學士里",
        "location": {
            "lat": 24.9835198,
            "lng": 121.4567578
        }
    },
    {
        "name": "中正國中",
        "address": "金城路二段２４７號",
        "neighborhood": "學士里",
        "location": {
            "lat": 24.9835198,
            "lng": 121.4567578
        }
    },
    {
        "name": "中正國中",
        "address": "金城路二段２４７號",
        "neighborhood": "柑林里",
        "location": {
            "lat": 24.9835198,
            "lng": 121.4567578
        }
    },
    {
        "name": "中正國中",
        "address": "金城路二段２４７號",
        "neighborhood": "柑林里",
        "location": {
            "lat": 24.9835198,
            "lng": 121.4567578
        }
    },
    {
        "name": "中正國中",
        "address": "金城路二段２４７號",
        "neighborhood": "中正里",
        "location": {
            "lat": 24.9835198,
            "lng": 121.4567578
        }
    },
    {
        "name": "中正巿民活動中心",
        "address": "裕民路１８５巷３６弄２號對面",
        "neighborhood": "中正里",
        "location": {
            "lat": 24.9848407,
            "lng": 121.4545067
        }
    },
    {
        "name": "青雲里活動中心(左側)",
        "address": "清水路１４１巷１８號地下１樓",
        "neighborhood": "青雲里",
        "location": {
            "lat": 24.9819711,
            "lng": 121.4578622
        }
    },
    {
        "name": "青雲里活動中心(右側)",
        "address": "清水路１４１巷１８號地下１樓",
        "neighborhood": "青雲里",
        "location": {
            "lat": 24.9819711,
            "lng": 121.4578622
        }
    },
    {
        "name": "清和里活動中心",
        "address": "青雲路３６８號",
        "neighborhood": "清和里",
        "location": {
            "lat": 24.9738389,
            "lng": 121.458606
        }
    },
    {
        "name": "清水中學",
        "address": "明德路一段７２號",
        "neighborhood": "清和里",
        "location": {
            "lat": 24.9822978,
            "lng": 121.4653601
        }
    },
    {
        "name": "清水中學",
        "address": "明德路一段７２號",
        "neighborhood": "清和里",
        "location": {
            "lat": 24.9822978,
            "lng": 121.4653601
        }
    },
    {
        "name": "清水中學",
        "address": "明德路一段７２號",
        "neighborhood": "清和里",
        "location": {
            "lat": 24.9822978,
            "lng": 121.4653601
        }
    },
    {
        "name": "清水托兒所(清化里活動中心)",
        "address": "青雲路３６８號４樓",
        "neighborhood": "清化里",
        "location": {
            "lat": 24.9738389,
            "lng": 121.458606
        }
    },
    {
        "name": "清水國小",
        "address": "金城路二段３５６號",
        "neighborhood": "清溪里",
        "location": {
            "lat": 24.9848823,
            "lng": 121.4614252
        }
    },
    {
        "name": "清水國小",
        "address": "金城路二段３５６號",
        "neighborhood": "清溪里",
        "location": {
            "lat": 24.9848823,
            "lng": 121.4614252
        }
    },
    {
        "name": "清溪里活動中心(左側)",
        "address": "清水路２４３之１號",
        "neighborhood": "清溪里",
        "location": {
            "lat": 24.983432,
            "lng": 121.461498
        }
    },
    {
        "name": "清溪里活動中心(右側)",
        "address": "清水路２４３之１號",
        "neighborhood": "清溪里",
        "location": {
            "lat": 24.983432,
            "lng": 121.461498
        }
    },
    {
        "name": "青山里活動中心",
        "address": "明德路一段７４之１號",
        "neighborhood": "青山里",
        "location": {
            "lat": 24.98425,
            "lng": 121.4653125
        }
    },
    {
        "name": "清水中學",
        "address": "明德路一段７２號",
        "neighborhood": "青山里",
        "location": {
            "lat": 24.9822978,
            "lng": 121.4653601
        }
    },
    {
        "name": "清水國小",
        "address": "金城路二段３５６號",
        "neighborhood": "清水里",
        "location": {
            "lat": 24.9848823,
            "lng": 121.4614252
        }
    },
    {
        "name": "清水國小",
        "address": "金城路二段３５６號",
        "neighborhood": "清水里",
        "location": {
            "lat": 24.9848823,
            "lng": 121.4614252
        }
    },
    {
        "name": "清水里活動中心(左側)",
        "address": "清水路２３４巷５號",
        "neighborhood": "清水里",
        "location": {
            "lat": 24.982626,
            "lng": 121.461282
        }
    },
    {
        "name": "清水里活動中心(右側)",
        "address": "清水路２３４巷５號",
        "neighborhood": "清水里",
        "location": {
            "lat": 24.982626,
            "lng": 121.461282
        }
    },
    {
        "name": "清水國小",
        "address": "金城路二段３５６號",
        "neighborhood": "清水里",
        "location": {
            "lat": 24.9848823,
            "lng": 121.4614252
        }
    },
    {
        "name": "清水國小",
        "address": "金城路二段３５６號",
        "neighborhood": "永豐里",
        "location": {
            "lat": 24.9848823,
            "lng": 121.4614252
        }
    },
    {
        "name": "清水國小",
        "address": "金城路二段３５６號",
        "neighborhood": "永豐里",
        "location": {
            "lat": 24.9848823,
            "lng": 121.4614252
        }
    },
    {
        "name": "清水國小",
        "address": "金城路二段３５６號",
        "neighborhood": "永豐里",
        "location": {
            "lat": 24.9848823,
            "lng": 121.4614252
        }
    },
    {
        "name": "清水中學",
        "address": "明德路一段７２號",
        "neighborhood": "永富里",
        "location": {
            "lat": 24.9822978,
            "lng": 121.4653601
        }
    },
    {
        "name": "清水中學",
        "address": "明德路一段７２號",
        "neighborhood": "永富里",
        "location": {
            "lat": 24.9822978,
            "lng": 121.4653601
        }
    },
    {
        "name": "清水中學",
        "address": "明德路一段７２號",
        "neighborhood": "永富里",
        "location": {
            "lat": 24.9822978,
            "lng": 121.4653601
        }
    },
    {
        "name": "廷寮社區活動中心(右側)",
        "address": "永豐路１７１號旁",
        "neighborhood": "廷寮里",
        "location": {
            "lat": 24.9804199,
            "lng": 121.468305
        }
    },
    {
        "name": "廷寮社區活動中心(左側)",
        "address": "永豐路１７１號旁",
        "neighborhood": "廷寮里",
        "location": {
            "lat": 24.9804199,
            "lng": 121.468305
        }
    },
    {
        "name": "廷寮巿民活動中心",
        "address": "永豐路２４０之１號",
        "neighborhood": "廷寮里",
        "location": {
            "lat": 24.9779387,
            "lng": 121.4708365
        }
    },
    {
        "name": "清水中學",
        "address": "明德路一段７２號",
        "neighborhood": "金城里",
        "location": {
            "lat": 24.9822978,
            "lng": 121.4653601
        }
    },
    {
        "name": "清水中學",
        "address": "明德路一段７２號",
        "neighborhood": "金城里",
        "location": {
            "lat": 24.9822978,
            "lng": 121.4653601
        }
    },
    {
        "name": "清水中學",
        "address": "明德路一段７２號",
        "neighborhood": "金城里",
        "location": {
            "lat": 24.9822978,
            "lng": 121.4653601
        }
    },
    {
        "name": "?廷巿民活動中心(左側)",
        "address": "延吉街１３７巷１５號",
        "neighborhood": "峰廷里",
        "location": {
            "lat": 24.9857585,
            "lng": 121.471145
        }
    },
    {
        "name": "清水中學",
        "address": "明德路一段７２號",
        "neighborhood": "峰廷里",
        "location": {
            "lat": 24.9822978,
            "lng": 121.4653601
        }
    },
    {
        "name": "清水中學",
        "address": "明德路一段７２號",
        "neighborhood": "峰廷里",
        "location": {
            "lat": 24.9822978,
            "lng": 121.4653601
        }
    },
    {
        "name": "清水中學",
        "address": "明德路一段７２號",
        "neighborhood": "峰廷里",
        "location": {
            "lat": 24.9822978,
            "lng": 121.4653601
        }
    },
    {
        "name": "清水中學",
        "address": "明德路一段７２號",
        "neighborhood": "峰廷里",
        "location": {
            "lat": 24.9822978,
            "lng": 121.4653601
        }
    },
    {
        "name": "清水中學",
        "address": "明德路一段７２號",
        "neighborhood": "延吉里",
        "location": {
            "lat": 24.9822978,
            "lng": 121.4653601
        }
    },
    {
        "name": "延吉巿民活動中心(右側)",
        "address": "延吉街１３７巷１３號",
        "neighborhood": "延吉里",
        "location": {
            "lat": 24.9858189,
            "lng": 121.471119
        }
    },
    {
        "name": "清水中學",
        "address": "明德路一段７２號",
        "neighborhood": "延吉里",
        "location": {
            "lat": 24.9822978,
            "lng": 121.4653601
        }
    },
    {
        "name": "安和國小",
        "address": "延和路２３號",
        "neighborhood": "延壽里",
        "location": {
            "lat": 24.988886,
            "lng": 121.4650192
        }
    },
    {
        "name": "延壽巿民活動中心",
        "address": "延和路１２５巷２８號２樓",
        "neighborhood": "延壽里",
        "location": {
            "lat": 24.9909742,
            "lng": 121.4690907
        }
    },
    {
        "name": "安和國小",
        "address": "延和路２３號",
        "neighborhood": "延壽里",
        "location": {
            "lat": 24.988886,
            "lng": 121.4650192
        }
    },
    {
        "name": "安和國小",
        "address": "延和路２３號",
        "neighborhood": "延祿里",
        "location": {
            "lat": 24.988886,
            "lng": 121.4650192
        }
    },
    {
        "name": "安和國小",
        "address": "延和路２３號",
        "neighborhood": "延祿里",
        "location": {
            "lat": 24.988886,
            "lng": 121.4650192
        }
    },
    {
        "name": "安和國小",
        "address": "延和路２３號",
        "neighborhood": "延祿里",
        "location": {
            "lat": 24.988886,
            "lng": 121.4650192
        }
    },
    {
        "name": "安和國小",
        "address": "延和路２３號",
        "neighborhood": "平和里",
        "location": {
            "lat": 24.988886,
            "lng": 121.4650192
        }
    },
    {
        "name": "平和里活動中心",
        "address": "延和路１０５巷８弄７號",
        "neighborhood": "平和里",
        "location": {
            "lat": 24.9914954,
            "lng": 121.4675254
        }
    },
    {
        "name": "安和國小",
        "address": "延和路２３號",
        "neighborhood": "平和里",
        "location": {
            "lat": 24.988886,
            "lng": 121.4650192
        }
    },
    {
        "name": "安和國小",
        "address": "延和路２３號",
        "neighborhood": "平和里",
        "location": {
            "lat": 24.988886,
            "lng": 121.4650192
        }
    },
    {
        "name": "安和巿民活動中心",
        "address": "延和路８８巷１０弄３號",
        "neighborhood": "安和里",
        "location": {
            "lat": 24.988753,
            "lng": 121.4666716
        }
    },
    {
        "name": "安和國小",
        "address": "延和路２３號",
        "neighborhood": "安和里",
        "location": {
            "lat": 24.988886,
            "lng": 121.4650192
        }
    },
    {
        "name": "安和國小",
        "address": "延和路２３號",
        "neighborhood": "安和里",
        "location": {
            "lat": 24.988886,
            "lng": 121.4650192
        }
    },
    {
        "name": "安和國小",
        "address": "延和路２３號",
        "neighborhood": "延和里",
        "location": {
            "lat": 24.988886,
            "lng": 121.4650192
        }
    },
    {
        "name": "安和國小",
        "address": "延和路２３號",
        "neighborhood": "延和里",
        "location": {
            "lat": 24.988886,
            "lng": 121.4650192
        }
    },
    {
        "name": "安和國小",
        "address": "延和路２３號",
        "neighborhood": "延和里",
        "location": {
            "lat": 24.988886,
            "lng": 121.4650192
        }
    },
    {
        "name": "安和國小",
        "address": "延和路２３號",
        "neighborhood": "延和里",
        "location": {
            "lat": 24.988886,
            "lng": 121.4650192
        }
    }
]