[
    {
        "name": "新北市立新店幼兒園新店分班",
        "address": "新店路２０７號",
        "neighborhood": "新店里",
        "location": {
            "lat": 24.956793,
            "lng": 121.537049
        }
    },
    {
        "name": "瑠公農田水利會新店紀念大樓",
        "address": "北新路一段４５巷５號",
        "neighborhood": "張南里",
        "location": {
            "lat": 24.959042,
            "lng": 121.537415
        }
    },
    {
        "name": "新店國小",
        "address": "新店路２號",
        "neighborhood": "國校里",
        "location": {
            "lat": 24.9529938,
            "lng": 121.5402904
        }
    },
    {
        "name": "新店國小",
        "address": "新店路２號",
        "neighborhood": "國校里",
        "location": {
            "lat": 24.9529938,
            "lng": 121.5402904
        }
    },
    {
        "name": "文山國中",
        "address": "文中路３８號",
        "neighborhood": "文中里",
        "location": {
            "lat": 24.956705,
            "lng": 121.538935
        }
    },
    {
        "name": "新店教會",
        "address": "光明街１３８巷８、１０號",
        "neighborhood": "廣明里",
        "location": {
            "lat": 24.961098,
            "lng": 121.539753
        }
    },
    {
        "name": "文明里活動中心",
        "address": "光明街１６８巷５弄２之１號",
        "neighborhood": "文明里",
        "location": {
            "lat": 24.9619199,
            "lng": 121.540485
        }
    },
    {
        "name": "福德祠(土地公廟)",
        "address": "檳榔路３６巷口",
        "neighborhood": "文明里",
        "location": {
            "lat": 24.971893,
            "lng": 121.550018
        }
    },
    {
        "name": "五峰國中",
        "address": "中興路一段２５３號",
        "neighborhood": "中興里",
        "location": {
            "lat": 24.9667222,
            "lng": 121.5441603
        }
    },
    {
        "name": "五峰國中",
        "address": "中興路一段２５３號",
        "neighborhood": "中興里",
        "location": {
            "lat": 24.9667222,
            "lng": 121.5441603
        }
    },
    {
        "name": "五峰國中",
        "address": "中興路一段２５３號",
        "neighborhood": "中興里",
        "location": {
            "lat": 24.9667222,
            "lng": 121.5441603
        }
    },
    {
        "name": "五峰國中",
        "address": "中興路一段２５３號",
        "neighborhood": "中興里",
        "location": {
            "lat": 24.9667222,
            "lng": 121.5441603
        }
    },
    {
        "name": "天闊社區中庭",
        "address": "環河路３６號",
        "neighborhood": "新生里",
        "location": {
            "lat": 24.962417,
            "lng": 121.537616
        }
    },
    {
        "name": "名人華廈社區中庭",
        "address": "北新路一段１３５號",
        "neighborhood": "新生里",
        "location": {
            "lat": 24.9632705,
            "lng": 121.5394541
        }
    },
    {
        "name": "車庫",
        "address": "新生街１３巷５號",
        "neighborhood": "新生里",
        "location": {
            "lat": 24.9660139,
            "lng": 121.539843
        }
    },
    {
        "name": "五峰國中(2樓教室)",
        "address": "中興路一段２５３號",
        "neighborhood": "新德里",
        "location": {
            "lat": 24.9667222,
            "lng": 121.5441603
        }
    },
    {
        "name": "五峰國中(2樓教室)",
        "address": "中興路一段２５３號",
        "neighborhood": "新德里",
        "location": {
            "lat": 24.9667222,
            "lng": 121.5441603
        }
    },
    {
        "name": "北新國小",
        "address": "寶橋路８號",
        "neighborhood": "張北里",
        "location": {
            "lat": 24.9742987,
            "lng": 121.54472
        }
    },
    {
        "name": "北新國小",
        "address": "寶橋路８號",
        "neighborhood": "張北里",
        "location": {
            "lat": 24.9742987,
            "lng": 121.54472
        }
    },
    {
        "name": "北新國小",
        "address": "寶橋路８號",
        "neighborhood": "張北里",
        "location": {
            "lat": 24.9742987,
            "lng": 121.54472
        }
    },
    {
        "name": "北新國小",
        "address": "寶橋路８號",
        "neighborhood": "張北里",
        "location": {
            "lat": 24.9742987,
            "lng": 121.54472
        }
    },
    {
        "name": "北新國小",
        "address": "寶橋路８號",
        "neighborhood": "張北里",
        "location": {
            "lat": 24.9742987,
            "lng": 121.54472
        }
    },
    {
        "name": "五峰國中",
        "address": "中興路一段２５３號",
        "neighborhood": "五?里",
        "location": {
            "lat": 24.9667222,
            "lng": 121.5441603
        }
    },
    {
        "name": "五峰國中",
        "address": "中興路一段２５３號",
        "neighborhood": "五?里",
        "location": {
            "lat": 24.9667222,
            "lng": 121.5441603
        }
    },
    {
        "name": "五峰國中",
        "address": "中興路一段２５３號",
        "neighborhood": "五?里",
        "location": {
            "lat": 24.9667222,
            "lng": 121.5441603
        }
    },
    {
        "name": "五峰國中",
        "address": "中興路一段２５３號",
        "neighborhood": "五?里",
        "location": {
            "lat": 24.9667222,
            "lng": 121.5441603
        }
    },
    {
        "name": "大千豪景社區活動中心",
        "address": "新坡一街１８巷４弄２７號底",
        "neighborhood": "長春里",
        "location": {
            "lat": 24.9606482,
            "lng": 121.5494316
        }
    },
    {
        "name": "江坡華城社區活動中心",
        "address": "新坡一街７０號",
        "neighborhood": "長春里",
        "location": {
            "lat": 24.9639772,
            "lng": 121.5483889
        }
    },
    {
        "name": "北新國小",
        "address": "寶橋路８號",
        "neighborhood": "新安里",
        "location": {
            "lat": 24.9742987,
            "lng": 121.54472
        }
    },
    {
        "name": "北新國小",
        "address": "寶橋路８號",
        "neighborhood": "新安里",
        "location": {
            "lat": 24.9742987,
            "lng": 121.54472
        }
    },
    {
        "name": "北新國小",
        "address": "寶橋路８號",
        "neighborhood": "新安里",
        "location": {
            "lat": 24.9742987,
            "lng": 121.54472
        }
    },
    {
        "name": "北新國小",
        "address": "寶橋路８號",
        "neighborhood": "忠誠里",
        "location": {
            "lat": 24.9742987,
            "lng": 121.54472
        }
    },
    {
        "name": "北新國小",
        "address": "寶橋路８號",
        "neighborhood": "忠誠里",
        "location": {
            "lat": 24.9742987,
            "lng": 121.54472
        }
    },
    {
        "name": "崇光女中(2樓教室)",
        "address": "三民路１８號",
        "neighborhood": "中正里",
        "location": {
            "lat": 24.971809,
            "lng": 121.539078
        }
    },
    {
        "name": "崇光女中(2樓教室)",
        "address": "三民路１８號",
        "neighborhood": "中正里",
        "location": {
            "lat": 24.971809,
            "lng": 121.539078
        }
    },
    {
        "name": "三民活動中心",
        "address": "三民路２０之２號",
        "neighborhood": "中正里",
        "location": {
            "lat": 24.971825,
            "lng": 121.537657
        }
    },
    {
        "name": "中正活動中心(中正閱覽室)",
        "address": "中正路２７５巷１７之１號",
        "neighborhood": "中正里",
        "location": {
            "lat": 24.9735172,
            "lng": 121.5372473
        }
    },
    {
        "name": "中正國小",
        "address": "三民路３６號",
        "neighborhood": "中華里",
        "location": {
            "lat": 24.9718132,
            "lng": 121.5366677
        }
    },
    {
        "name": "中正國小",
        "address": "三民路３６號",
        "neighborhood": "中華里",
        "location": {
            "lat": 24.9718132,
            "lng": 121.5366677
        }
    },
    {
        "name": "中正國小",
        "address": "三民路３６號",
        "neighborhood": "中華里",
        "location": {
            "lat": 24.9718132,
            "lng": 121.5366677
        }
    },
    {
        "name": "佳欣幼兒園",
        "address": "中正路１２８巷９弄１號",
        "neighborhood": "仁愛里",
        "location": {
            "lat": 24.9719849,
            "lng": 121.542362
        }
    },
    {
        "name": "崇光女中(2樓教室)",
        "address": "三民路１８號",
        "neighborhood": "仁愛里",
        "location": {
            "lat": 24.971809,
            "lng": 121.539078
        }
    },
    {
        "name": "新店區建國游泳池",
        "address": "建國路５８號",
        "neighborhood": "建國里",
        "location": {
            "lat": 24.975471,
            "lng": 121.540793
        }
    },
    {
        "name": "容石園幼兒園",
        "address": "建安街３１號",
        "neighborhood": "建國里",
        "location": {
            "lat": 24.9755741,
            "lng": 121.5390841
        }
    },
    {
        "name": "中正國小",
        "address": "三民路３６號",
        "neighborhood": "百忍里",
        "location": {
            "lat": 24.9718132,
            "lng": 121.5366677
        }
    },
    {
        "name": "中正國小",
        "address": "三民路３６號",
        "neighborhood": "百忍里",
        "location": {
            "lat": 24.9718132,
            "lng": 121.5366677
        }
    },
    {
        "name": "咸亨宮",
        "address": "自由街２號",
        "neighborhood": "百忍里",
        "location": {
            "lat": 24.9751459,
            "lng": 121.53546
        }
    },
    {
        "name": "大豐國小",
        "address": "民族路１０８號",
        "neighborhood": "百和里",
        "location": {
            "lat": 24.9775082,
            "lng": 121.5382108
        }
    },
    {
        "name": "大豐國小",
        "address": "民族路１０８號",
        "neighborhood": "百和里",
        "location": {
            "lat": 24.9775082,
            "lng": 121.5382108
        }
    },
    {
        "name": "新店高中",
        "address": "中央路９３號",
        "neighborhood": "福德里",
        "location": {
            "lat": 24.9755603,
            "lng": 121.531764
        }
    },
    {
        "name": "新店高中",
        "address": "中央路９３號",
        "neighborhood": "福德里",
        "location": {
            "lat": 24.9755603,
            "lng": 121.531764
        }
    },
    {
        "name": "中正國小",
        "address": "三民路３６號",
        "neighborhood": "百福里",
        "location": {
            "lat": 24.9718132,
            "lng": 121.5366677
        }
    },
    {
        "name": "中正國小",
        "address": "三民路３６號",
        "neighborhood": "百福里",
        "location": {
            "lat": 24.9718132,
            "lng": 121.5366677
        }
    },
    {
        "name": "福民活動中心",
        "address": "福園街８之１號",
        "neighborhood": "福民里",
        "location": {
            "lat": 24.9730355,
            "lng": 121.5329903
        }
    },
    {
        "name": "新店高中",
        "address": "中央路９３號",
        "neighborhood": "福民里",
        "location": {
            "lat": 24.9755603,
            "lng": 121.531764
        }
    },
    {
        "name": "中央公有市場1樓川堂(停車管理處靠四街側)",
        "address": "中央五街６０號",
        "neighborhood": "中山里",
        "location": {
            "lat": 24.9755119,
            "lng": 121.52722
        }
    },
    {
        "name": "湯泉美地社區管委會宴會廳",
        "address": "溪園路３９３號",
        "neighborhood": "中山里",
        "location": {
            "lat": 24.9851651,
            "lng": 121.5276352
        }
    },
    {
        "name": "湯泉櫻花社區B1圖書室",
        "address": "溪園路５１３號地下室",
        "neighborhood": "中山里",
        "location": {
            "lat": 24.9839897,
            "lng": 121.526174
        }
    },
    {
        "name": "新北市立新店幼兒園和平分班",
        "address": "民生路１４７巷口",
        "neighborhood": "和平里",
        "location": {
            "lat": 24.971893,
            "lng": 121.550018
        }
    },
    {
        "name": "中央公有市場1樓川堂(全聯社靠四街側)",
        "address": "中央五街６０號",
        "neighborhood": "中央里",
        "location": {
            "lat": 24.9755119,
            "lng": 121.52722
        }
    },
    {
        "name": "中央公有市場1樓川堂(全聯社靠五街側)",
        "address": "中央五街６０號",
        "neighborhood": "中央里",
        "location": {
            "lat": 24.9755119,
            "lng": 121.52722
        }
    },
    {
        "name": "中央公有市場1樓川堂(停車管理處靠五街側)",
        "address": "中央五街６０號",
        "neighborhood": "中央里",
        "location": {
            "lat": 24.9755119,
            "lng": 121.52722
        }
    },
    {
        "name": "大豐國小",
        "address": "民族路１０８號",
        "neighborhood": "國豐里",
        "location": {
            "lat": 24.9775082,
            "lng": 121.5382108
        }
    },
    {
        "name": "大豐國小",
        "address": "民族路１０８號",
        "neighborhood": "國豐里",
        "location": {
            "lat": 24.9775082,
            "lng": 121.5382108
        }
    },
    {
        "name": "大豐國小",
        "address": "民族路１０８號",
        "neighborhood": "明德里",
        "location": {
            "lat": 24.9775082,
            "lng": 121.5382108
        }
    },
    {
        "name": "大豐國小",
        "address": "民族路１０８號",
        "neighborhood": "明德里",
        "location": {
            "lat": 24.9775082,
            "lng": 121.5382108
        }
    },
    {
        "name": "大豐國小",
        "address": "民族路１０８號",
        "neighborhood": "明德里",
        "location": {
            "lat": 24.9775082,
            "lng": 121.5382108
        }
    },
    {
        "name": "大豐國小",
        "address": "民族路１０８號",
        "neighborhood": "大豐里",
        "location": {
            "lat": 24.9775082,
            "lng": 121.5382108
        }
    },
    {
        "name": "大豐國小",
        "address": "民族路１０８號",
        "neighborhood": "大豐里",
        "location": {
            "lat": 24.9775082,
            "lng": 121.5382108
        }
    },
    {
        "name": "樂童幼兒園",
        "address": "大豐路１６巷９號",
        "neighborhood": "大同里",
        "location": {
            "lat": 24.9806336,
            "lng": 121.5407599
        }
    },
    {
        "name": "樂童幼兒園",
        "address": "大豐路１６巷１１號",
        "neighborhood": "大同里",
        "location": {
            "lat": 24.9806776,
            "lng": 121.5407
        }
    },
    {
        "name": "大豐國小",
        "address": "民族路１０８號",
        "neighborhood": "江陵里",
        "location": {
            "lat": 24.9775082,
            "lng": 121.5382108
        }
    },
    {
        "name": "大豐國小",
        "address": "民族路１０８號",
        "neighborhood": "江陵里",
        "location": {
            "lat": 24.9775082,
            "lng": 121.5382108
        }
    },
    {
        "name": "大豐國小",
        "address": "民族路１０８號",
        "neighborhood": "江陵里",
        "location": {
            "lat": 24.9775082,
            "lng": 121.5382108
        }
    },
    {
        "name": "大豐國小",
        "address": "民族路１０８號",
        "neighborhood": "復興里",
        "location": {
            "lat": 24.9775082,
            "lng": 121.5382108
        }
    },
    {
        "name": "莊敬高職",
        "address": "民生路４５號",
        "neighborhood": "復興里",
        "location": {
            "lat": 24.98555,
            "lng": 121.5320166
        }
    },
    {
        "name": "開明高職",
        "address": "寶中路４９號",
        "neighborhood": "寶興里",
        "location": {
            "lat": 24.979966,
            "lng": 121.5462843
        }
    },
    {
        "name": "寶興活動中心會議室",
        "address": "寶中路６５巷５９號",
        "neighborhood": "寶興里",
        "location": {
            "lat": 24.9814715,
            "lng": 121.5459128
        }
    },
    {
        "name": "寶興活動中心文康室",
        "address": "寶中路６５巷５９號",
        "neighborhood": "寶興里",
        "location": {
            "lat": 24.9814715,
            "lng": 121.5459128
        }
    },
    {
        "name": "寶橋福壽宮(土地公廟)",
        "address": "寶橋路２６６號",
        "neighborhood": "寶福里",
        "location": {
            "lat": 24.979024,
            "lng": 121.5517439
        }
    },
    {
        "name": "隆康科技文教園區1樓通道(康軒文教對面)",
        "address": "中興路二段２１８巷６號至１０號",
        "neighborhood": "寶福里",
        "location": {
            "lat": 24.975294,
            "lng": 121.5486661
        }
    },
    {
        "name": "寶路生活館社區E棟大樓通道",
        "address": "中興路二段２０５號",
        "neighborhood": "寶福里",
        "location": {
            "lat": 24.9737348,
            "lng": 121.5481879
        }
    },
    {
        "name": "寶福社區活動中心",
        "address": "寶興路６２巷５號地下室",
        "neighborhood": "寶福里",
        "location": {
            "lat": 24.97307,
            "lng": 121.54935
        }
    },
    {
        "name": "開明高職",
        "address": "寶中路４９號",
        "neighborhood": "寶安里",
        "location": {
            "lat": 24.979966,
            "lng": 121.5462843
        }
    },
    {
        "name": "開明高職",
        "address": "寶中路４９號",
        "neighborhood": "寶安里",
        "location": {
            "lat": 24.979966,
            "lng": 121.5462843
        }
    },
    {
        "name": "車庫",
        "address": "北新路三段１３８號１樓後方(大坪林捷運站２號出口旁巷內)",
        "neighborhood": "寶安里",
        "location": {
            "lat": 24.982027,
            "lng": 121.541714
        }
    },
    {
        "name": "泰山岩顯應祖師廟",
        "address": "寶慶街３２巷５弄５號",
        "neighborhood": "信義里",
        "location": {
            "lat": 24.9869829,
            "lng": 121.542886
        }
    },
    {
        "name": "信義活動中心",
        "address": "寶慶街１０之１號",
        "neighborhood": "信義里",
        "location": {
            "lat": 24.986972,
            "lng": 121.543463
        }
    },
    {
        "name": "信義活動中心",
        "address": "寶慶街１０之１號",
        "neighborhood": "信義里",
        "location": {
            "lat": 24.986972,
            "lng": 121.543463
        }
    },
    {
        "name": "大坪林聯合開發大樓",
        "address": "北新路三段２００號",
        "neighborhood": "信義里",
        "location": {
            "lat": 24.9842171,
            "lng": 121.5412724
        }
    },
    {
        "name": "莊敬高職",
        "address": "民生路４５號",
        "neighborhood": "忠孝里",
        "location": {
            "lat": 24.98555,
            "lng": 121.5320166
        }
    },
    {
        "name": "莊敬高職",
        "address": "民生路４５號",
        "neighborhood": "忠孝里",
        "location": {
            "lat": 24.98555,
            "lng": 121.5320166
        }
    },
    {
        "name": "陽光天使幼兒園安親班教室",
        "address": "中正路７００巷２６號",
        "neighborhood": "大鵬里",
        "location": {
            "lat": 24.9913801,
            "lng": 121.5346797
        }
    },
    {
        "name": "大鵬華城管委會活動中心會議室",
        "address": "中正路７００巷２６號２樓",
        "neighborhood": "大鵬里",
        "location": {
            "lat": 24.9913801,
            "lng": 121.5346797
        }
    },
    {
        "name": "太平里臨時集會所",
        "address": "碧潭路２７號",
        "neighborhood": "太平里",
        "location": {
            "lat": 24.955995,
            "lng": 121.534241
        }
    },
    {
        "name": "太平宮餐廳(原太平托兒所旁)",
        "address": "太平路４５號旁",
        "neighborhood": "太平里",
        "location": {
            "lat": 0,
            "lng": 0
        }
    },
    {
        "name": "美城里才藝教室",
        "address": "永業路８１巷３弄５號地下室",
        "neighborhood": "美城里",
        "location": {
            "lat": 24.9494585,
            "lng": 121.5295925
        }
    },
    {
        "name": "美之城社區活動中心",
        "address": "永業路８１巷７弄１號地下室",
        "neighborhood": "美城里",
        "location": {
            "lat": 24.9494585,
            "lng": 121.5295925
        }
    },
    {
        "name": "頂城活動中心",
        "address": "安康路一段９之２號",
        "neighborhood": "頂城里",
        "location": {
            "lat": 24.9632283,
            "lng": 121.5248282
        }
    },
    {
        "name": "下城活動中心",
        "address": "安康路一段２８１巷６號",
        "neighborhood": "下城里",
        "location": {
            "lat": 24.9625918,
            "lng": 121.523611
        }
    },
    {
        "name": "下城活動中心",
        "address": "安康路一段２８１巷６號",
        "neighborhood": "下城里",
        "location": {
            "lat": 24.9625918,
            "lng": 121.523611
        }
    },
    {
        "name": "安康高中",
        "address": "安興路２５號",
        "neighborhood": "柴埕里",
        "location": {
            "lat": 24.9698725,
            "lng": 121.5152906
        }
    },
    {
        "name": "安康高中",
        "address": "安興路２５號",
        "neighborhood": "柴埕里",
        "location": {
            "lat": 24.9698725,
            "lng": 121.5152906
        }
    },
    {
        "name": "安康高中",
        "address": "安興路２５號",
        "neighborhood": "柴埕里",
        "location": {
            "lat": 24.9698725,
            "lng": 121.5152906
        }
    },
    {
        "name": "安康高中",
        "address": "安興路２５號",
        "neighborhood": "柴埕里",
        "location": {
            "lat": 24.9698725,
            "lng": 121.5152906
        }
    },
    {
        "name": "凡賽斯花園社區大廳",
        "address": "安民街２３２之１號",
        "neighborhood": "安和里",
        "location": {
            "lat": 24.9749452,
            "lng": 121.5173901
        }
    },
    {
        "name": "別墅天廈中庭(會議室)",
        "address": "安和路二段２１９號地下室",
        "neighborhood": "安和里",
        "location": {
            "lat": 24.973952,
            "lng": 121.5191773
        }
    },
    {
        "name": "別墅天廈中庭(通道)",
        "address": "安和路二段２１９號地下室",
        "neighborhood": "安和里",
        "location": {
            "lat": 24.973952,
            "lng": 121.5191773
        }
    },
    {
        "name": "大溪地社區集會所",
        "address": "安民街３６５巷１４號地下室",
        "neighborhood": "安和里",
        "location": {
            "lat": 24.9759146,
            "lng": 121.5166545
        }
    },
    {
        "name": "新和國小",
        "address": "安和路三段１００號",
        "neighborhood": "永安里",
        "location": {
            "lat": 24.9845965,
            "lng": 121.5181695
        }
    },
    {
        "name": "新和國小",
        "address": "安和路三段１００號",
        "neighborhood": "永安里",
        "location": {
            "lat": 24.9845965,
            "lng": 121.5181695
        }
    },
    {
        "name": "新和國小",
        "address": "安和路三段１００號",
        "neighborhood": "永安里",
        "location": {
            "lat": 24.9845965,
            "lng": 121.5181695
        }
    },
    {
        "name": "新和國小",
        "address": "安和路三段１００號",
        "neighborhood": "新和里",
        "location": {
            "lat": 24.9845965,
            "lng": 121.5181695
        }
    },
    {
        "name": "新和國小",
        "address": "安和路三段１００號",
        "neighborhood": "新和里",
        "location": {
            "lat": 24.9845965,
            "lng": 121.5181695
        }
    },
    {
        "name": "新和國小",
        "address": "安和路三段１００號",
        "neighborhood": "永平里",
        "location": {
            "lat": 24.9845965,
            "lng": 121.5181695
        }
    },
    {
        "name": "新和國小",
        "address": "安和路三段１００號",
        "neighborhood": "永平里",
        "location": {
            "lat": 24.9845965,
            "lng": 121.5181695
        }
    },
    {
        "name": "新和國小",
        "address": "安和路三段１００號",
        "neighborhood": "永平里",
        "location": {
            "lat": 24.9845965,
            "lng": 121.5181695
        }
    },
    {
        "name": "安坑國小",
        "address": "安忠路３６號",
        "neighborhood": "公崙里",
        "location": {
            "lat": 24.9613791,
            "lng": 121.5140747
        }
    },
    {
        "name": "安坑國小",
        "address": "安忠路３６號",
        "neighborhood": "公崙里",
        "location": {
            "lat": 24.9613791,
            "lng": 121.5140747
        }
    },
    {
        "name": "安坑國小",
        "address": "安忠路３６號",
        "neighborhood": "公崙里",
        "location": {
            "lat": 24.9613791,
            "lng": 121.5140747
        }
    },
    {
        "name": "安坑國小",
        "address": "安忠路３６號",
        "neighborhood": "公崙里",
        "location": {
            "lat": 24.9613791,
            "lng": 121.5140747
        }
    },
    {
        "name": "安坑國小",
        "address": "安忠路３６號",
        "neighborhood": "公崙里",
        "location": {
            "lat": 24.9613791,
            "lng": 121.5140747
        }
    },
    {
        "name": "安坑國小",
        "address": "安忠路３６號",
        "neighborhood": "公崙里",
        "location": {
            "lat": 24.9613791,
            "lng": 121.5140747
        }
    },
    {
        "name": "寶芝林甲社區育樂室",
        "address": "安德街８２巷１０之１號",
        "neighborhood": "安昌里",
        "location": {
            "lat": 24.9627881,
            "lng": 121.5118624
        }
    },
    {
        "name": "浪漫貴族社區",
        "address": "安成街２０號地下室",
        "neighborhood": "安昌里",
        "location": {
            "lat": 24.9603497,
            "lng": 121.5106461
        }
    },
    {
        "name": "品值寶鎮社區會議室",
        "address": "安康路二段２０６巷",
        "neighborhood": "安昌里",
        "location": {
            "lat": 24.9581218,
            "lng": 121.5055487
        }
    },
    {
        "name": "安康教會",
        "address": "安康路二段２３４巷１號",
        "neighborhood": "德安里",
        "location": {
            "lat": 24.9636882,
            "lng": 121.5167146
        }
    },
    {
        "name": "新北市青少年圖書館1樓",
        "address": "安康路二段１５１號",
        "neighborhood": "德安里",
        "location": {
            "lat": 24.9624932,
            "lng": 121.5127979
        }
    },
    {
        "name": "德安里巡守隊隊部",
        "address": "車子路１號隔壁",
        "neighborhood": "德安里",
        "location": {
            "lat": 24.956218,
            "lng": 121.504233
        }
    },
    {
        "name": "好好幼兒園地下1樓",
        "address": "達觀路６號",
        "neighborhood": "達觀里",
        "location": {
            "lat": 24.9410057,
            "lng": 121.5038027
        }
    },
    {
        "name": "達觀快樂20社區B1停車場",
        "address": "達觀路２０號",
        "neighborhood": "達觀里",
        "location": {
            "lat": 24.941911,
            "lng": 121.501982
        }
    },
    {
        "name": "黎明清境社區管理中心",
        "address": "黎明路９號",
        "neighborhood": "明城里",
        "location": {
            "lat": 24.9486297,
            "lng": 121.5023865
        }
    },
    {
        "name": "觀天下社區服務中心",
        "address": "黎明路６８號",
        "neighborhood": "明城里",
        "location": {
            "lat": 24.9454286,
            "lng": 121.5017795
        }
    },
    {
        "name": "台北小城活動中心",
        "address": "僑信路１９號",
        "neighborhood": "小城里",
        "location": {
            "lat": 24.950212,
            "lng": 121.4993447
        }
    },
    {
        "name": "台北小城服務中心2樓",
        "address": "僑信路６３號２樓",
        "neighborhood": "小城里",
        "location": {
            "lat": 24.9499889,
            "lng": 121.4993458
        }
    },
    {
        "name": "新北市立新店幼兒園雙城分班",
        "address": "安康路三段１６５巷２弄２９號",
        "neighborhood": "雙城里",
        "location": {
            "lat": 24.9514539,
            "lng": 121.48805
        }
    },
    {
        "name": "潤濟宮",
        "address": "安康路三段３０６號",
        "neighborhood": "雙城里",
        "location": {
            "lat": 24.9518413,
            "lng": 121.4870182
        }
    },
    {
        "name": "喜洋洋社區活動中心",
        "address": "裕合街１號",
        "neighborhood": "雙城里",
        "location": {
            "lat": 24.9501399,
            "lng": 121.489881
        }
    },
    {
        "name": "頂好社區活動中心",
        "address": "安泰路６０巷１之１號",
        "neighborhood": "雙城里",
        "location": {
            "lat": 24.9465809,
            "lng": 121.484769
        }
    },
    {
        "name": "彩蝶別墅社區管理中心",
        "address": "安祥路１０２巷口",
        "neighborhood": "香坡里",
        "location": {
            "lat": 24.9624658,
            "lng": 121.4821835
        }
    },
    {
        "name": "伴吾別墅管委會會議室",
        "address": "安祥路１０６巷１號",
        "neighborhood": "香坡里",
        "location": {
            "lat": 24.9625642,
            "lng": 121.4788553
        }
    },
    {
        "name": "綠野香坡社區活動中心",
        "address": "安祥路１４７巷７至９號地下室",
        "neighborhood": "香坡里",
        "location": {
            "lat": 24.9557572,
            "lng": 121.475352
        }
    },
    {
        "name": "新鎮社區管委會辦公室",
        "address": "安祥路１１０巷２號地下室",
        "neighborhood": "香坡里",
        "location": {
            "lat": 24.9569359,
            "lng": 121.475201
        }
    },
    {
        "name": "綠中海一期社區管理中心",
        "address": "安祥路６５號",
        "neighborhood": "香坡里",
        "location": {
            "lat": 24.9623839,
            "lng": 121.4802887
        }
    },
    {
        "name": "綠灣社區管理中心",
        "address": "安祥路９７巷１號",
        "neighborhood": "香坡里",
        "location": {
            "lat": 24.9583739,
            "lng": 121.490043
        }
    },
    {
        "name": "日興宮(日興閱覽室)",
        "address": "安康路三段５３０號",
        "neighborhood": "日興里",
        "location": {
            "lat": 24.9492669,
            "lng": 121.482564
        }
    },
    {
        "name": "錦秀社區管委會文康中心",
        "address": "錦秀路２２號地下室",
        "neighborhood": "日興里",
        "location": {
            "lat": 24.9438346,
            "lng": 121.4792017
        }
    },
    {
        "name": "台北新家坡隨園社區文康中心",
        "address": "安康路二段７３８號Ｂ１",
        "neighborhood": "日興里",
        "location": {
            "lat": 24.9581218,
            "lng": 121.5055487
        }
    },
    {
        "name": "玫瑰社區游泳池",
        "address": "富貴街９巷２９號地下室",
        "neighborhood": "玫瑰里",
        "location": {
            "lat": 24.9492575,
            "lng": 121.4940513
        }
    },
    {
        "name": "玫瑰社區桌球室",
        "address": "富貴街２０巷２號地下室",
        "neighborhood": "玫瑰里",
        "location": {
            "lat": 24.9476983,
            "lng": 121.4933322
        }
    },
    {
        "name": "滿堂彩社區活動中心",
        "address": "玫瑰路５８巷１８號地下室",
        "neighborhood": "玫瑰里",
        "location": {
            "lat": 24.9467978,
            "lng": 121.4937283
        }
    },
    {
        "name": "賓士社區活動中心",
        "address": "玫瑰路５１巷１４號地下室",
        "neighborhood": "吉祥里",
        "location": {
            "lat": 24.947927,
            "lng": 121.4959549
        }
    },
    {
        "name": "吉祥活動中心",
        "address": "玫瑰路５１巷２號",
        "neighborhood": "吉祥里",
        "location": {
            "lat": 24.9477378,
            "lng": 121.4959303
        }
    },
    {
        "name": "琴鍵畫樓管委會地下室",
        "address": "吉祥街２巷地下室",
        "neighborhood": "吉祥里",
        "location": {
            "lat": 24.9475258,
            "lng": 121.497391
        }
    },
    {
        "name": "車庫",
        "address": "新潭路一段２５號",
        "neighborhood": "塗潭里",
        "location": {
            "lat": 24.942633,
            "lng": 121.523226
        }
    },
    {
        "name": "石上清泉社區C2A區停車場",
        "address": "禾豐六路９２號",
        "neighborhood": "華城里",
        "location": {
            "lat": 24.9316858,
            "lng": 121.5136466
        }
    },
    {
        "name": "華城特區俱樂部",
        "address": "華城一路１８號",
        "neighborhood": "華城里",
        "location": {
            "lat": 24.9282792,
            "lng": 121.5049506
        }
    },
    {
        "name": "南青宮",
        "address": "北宜路一段２８６號",
        "neighborhood": "青潭里",
        "location": {
            "lat": 24.952545,
            "lng": 121.546675
        }
    },
    {
        "name": "青潭國小",
        "address": "北宜路二段８０號",
        "neighborhood": "青潭里",
        "location": {
            "lat": 24.9531177,
            "lng": 121.5522015
        }
    },
    {
        "name": "青潭國小",
        "address": "北宜路二段８０號",
        "neighborhood": "青潭里",
        "location": {
            "lat": 24.9531177,
            "lng": 121.5522015
        }
    },
    {
        "name": "青潭國小",
        "address": "北宜路二段８０號",
        "neighborhood": "美潭里",
        "location": {
            "lat": 24.9531177,
            "lng": 121.5522015
        }
    },
    {
        "name": "青潭國小",
        "address": "北宜路二段８０號",
        "neighborhood": "美潭里",
        "location": {
            "lat": 24.9531177,
            "lng": 121.5522015
        }
    },
    {
        "name": "大地世紀社區活動中心",
        "address": "長春路９巷２４之１號",
        "neighborhood": "美潭里",
        "location": {
            "lat": 24.954356,
            "lng": 121.5483585
        }
    },
    {
        "name": "福神宮",
        "address": "北宜路二段１２６號",
        "neighborhood": "員潭里",
        "location": {
            "lat": 24.9537638,
            "lng": 121.5568248
        }
    },
    {
        "name": "新巢代社區",
        "address": "北宜路二段５０１號",
        "neighborhood": "員潭里",
        "location": {
            "lat": 24.9540183,
            "lng": 121.5661233
        }
    },
    {
        "name": "雙?國小",
        "address": "北宜路三段６６號",
        "neighborhood": "雙坑里",
        "location": {
            "lat": 24.9513603,
            "lng": 121.5754065
        }
    },
    {
        "name": "長興宮文康中心",
        "address": "新烏路一段８９號",
        "neighborhood": "粗坑里",
        "location": {
            "lat": 24.9431884,
            "lng": 121.5462321
        }
    },
    {
        "name": "聽濤館",
        "address": "花園六路１號",
        "neighborhood": "粗坑里",
        "location": {
            "lat": 24.9323796,
            "lng": 121.5565911
        }
    },
    {
        "name": "屈尺國小",
        "address": "屈尺路５５號",
        "neighborhood": "屈尺里",
        "location": {
            "lat": 24.9225644,
            "lng": 121.5464689
        }
    },
    {
        "name": "屈尺國小",
        "address": "屈尺路５５號",
        "neighborhood": "屈尺里",
        "location": {
            "lat": 24.9225644,
            "lng": 121.5464689
        }
    },
    {
        "name": "龜山國小",
        "address": "新烏路三段９９巷１０號",
        "neighborhood": "龜山里",
        "location": {
            "lat": 24.902393,
            "lng": 121.5531746
        }
    },
    {
        "name": "廣興分校",
        "address": "廣興路５７號",
        "neighborhood": "廣興里",
        "location": {
            "lat": 24.9128001,
            "lng": 121.539422
        }
    },
    {
        "name": "崇德宮（王爺公廟）",
        "address": "灣潭路１２之２號",
        "neighborhood": "直潭里",
        "location": {
            "lat": 24.9468709,
            "lng": 121.538753
        }
    },
    {
        "name": "直潭國小",
        "address": "直潭路９２號",
        "neighborhood": "直潭里",
        "location": {
            "lat": 24.9378089,
            "lng": 121.5317798
        }
    }
]