[
    {
        "name": "大科市民活動中心",
        "address": "大科路４２號",
        "neighborhood": "大科里",
        "location": {
            "lat": 25.0567397,
            "lng": 121.4056085
        }
    },
    {
        "name": "南亞林口廠福利社",
        "address": "南林路１０１號",
        "neighborhood": "大科里",
        "location": {
            "lat": 25.0482218,
            "lng": 121.4151077
        }
    },
    {
        "name": "黎明市民活動中心",
        "address": "黎明路２３號",
        "neighborhood": "黎明里",
        "location": {
            "lat": 25.0613972,
            "lng": 121.4213356
        }
    },
    {
        "name": "泰山國中",
        "address": "泰林路二段４９８號",
        "neighborhood": "黎明里",
        "location": {
            "lat": 25.0528196,
            "lng": 121.4391868
        }
    },
    {
        "name": "泰山國中",
        "address": "泰林路二段４９８號",
        "neighborhood": "山腳里",
        "location": {
            "lat": 25.0528196,
            "lng": 121.4391868
        }
    },
    {
        "name": "泰山國中",
        "address": "泰林路二段４９８號",
        "neighborhood": "山腳里",
        "location": {
            "lat": 25.0528196,
            "lng": 121.4391868
        }
    },
    {
        "name": "泰山國小",
        "address": "泰林路二段２５５號",
        "neighborhood": "山腳里",
        "location": {
            "lat": 25.0528196,
            "lng": 121.4391868
        }
    },
    {
        "name": "泰山國小",
        "address": "泰林路二段２５５號",
        "neighborhood": "山腳里",
        "location": {
            "lat": 25.0528196,
            "lng": 121.4391868
        }
    },
    {
        "name": "楓樹福泰市民活動中心",
        "address": "楓江路２６巷２６號",
        "neighborhood": "福泰里",
        "location": {
            "lat": 25.061645,
            "lng": 121.434696
        }
    },
    {
        "name": "楓樹福泰市民活動中心",
        "address": "楓江路２６巷２６號",
        "neighborhood": "福泰里",
        "location": {
            "lat": 25.061645,
            "lng": 121.434696
        }
    },
    {
        "name": "泰山國小",
        "address": "泰林路二段２５５號",
        "neighborhood": "福興里",
        "location": {
            "lat": 25.0528196,
            "lng": 121.4391868
        }
    },
    {
        "name": "泰山國小",
        "address": "泰林路二段２５５號",
        "neighborhood": "福興里",
        "location": {
            "lat": 25.0528196,
            "lng": 121.4391868
        }
    },
    {
        "name": "山腳市民活動中心",
        "address": "福德街１４號",
        "neighborhood": "楓樹里",
        "location": {
            "lat": 25.0087992,
            "lng": 121.4559482
        }
    },
    {
        "name": "泰山國小",
        "address": "泰林路二段２５５號",
        "neighborhood": "楓樹里",
        "location": {
            "lat": 25.0528196,
            "lng": 121.4391868
        }
    },
    {
        "name": "楓樹福泰市民活動中心2樓",
        "address": "楓江路２６巷２６號２樓",
        "neighborhood": "楓樹里",
        "location": {
            "lat": 25.061645,
            "lng": 121.434696
        }
    },
    {
        "name": "泰山高中",
        "address": "辭修路７號",
        "neighborhood": "同榮里",
        "location": {
            "lat": 25.0584546,
            "lng": 121.4274738
        }
    },
    {
        "name": "泰山高中",
        "address": "辭修路７號",
        "neighborhood": "同榮里",
        "location": {
            "lat": 25.0584546,
            "lng": 121.4274738
        }
    },
    {
        "name": "同榮國小",
        "address": "公園路３３號",
        "neighborhood": "同榮里",
        "location": {
            "lat": 25.0401986,
            "lng": 121.4528938
        }
    },
    {
        "name": "泰山高中",
        "address": "辭修路７號",
        "neighborhood": "同興里",
        "location": {
            "lat": 25.0584546,
            "lng": 121.4274738
        }
    },
    {
        "name": "泰山高中",
        "address": "辭修路７號",
        "neighborhood": "同興里",
        "location": {
            "lat": 25.0584546,
            "lng": 121.4274738
        }
    },
    {
        "name": "義學國小",
        "address": "民生路３０號",
        "neighborhood": "全興里",
        "location": {
            "lat": 25.0247759,
            "lng": 121.467701
        }
    },
    {
        "name": "義學國小",
        "address": "民生路３０號",
        "neighborhood": "全興里",
        "location": {
            "lat": 25.0247759,
            "lng": 121.467701
        }
    },
    {
        "name": "義學國小",
        "address": "民生路３０號",
        "neighborhood": "全興里",
        "location": {
            "lat": 25.0247759,
            "lng": 121.467701
        }
    },
    {
        "name": "義學國小",
        "address": "民生路３０號",
        "neighborhood": "全興里",
        "location": {
            "lat": 25.0247759,
            "lng": 121.467701
        }
    },
    {
        "name": "義學國小",
        "address": "民生路３０號",
        "neighborhood": "全興里",
        "location": {
            "lat": 25.0247759,
            "lng": 121.467701
        }
    },
    {
        "name": "同榮國小",
        "address": "公園路３３號",
        "neighborhood": "義學里",
        "location": {
            "lat": 25.0401986,
            "lng": 121.4528938
        }
    },
    {
        "name": "同榮國小",
        "address": "公園路３３號",
        "neighborhood": "義學里",
        "location": {
            "lat": 25.0401986,
            "lng": 121.4528938
        }
    },
    {
        "name": "義學市民活動中心",
        "address": "明志路二段１０６號",
        "neighborhood": "義學里",
        "location": {
            "lat": 25.0486919,
            "lng": 121.427348
        }
    },
    {
        "name": "義學國中",
        "address": "民生路３３號",
        "neighborhood": "義仁里",
        "location": {
            "lat": 25.0471336,
            "lng": 121.4346934
        }
    },
    {
        "name": "義學國中",
        "address": "民生路３３號",
        "neighborhood": "義仁里",
        "location": {
            "lat": 25.0471336,
            "lng": 121.4346934
        }
    },
    {
        "name": "義仁市民活動中心",
        "address": "明志路二段１７７號",
        "neighborhood": "義仁里",
        "location": {
            "lat": 25.0486919,
            "lng": 121.427348
        }
    },
    {
        "name": "義學國中",
        "address": "民生路３３號",
        "neighborhood": "義仁里",
        "location": {
            "lat": 25.0471336,
            "lng": 121.4346934
        }
    },
    {
        "name": "明志國小",
        "address": "新生路２號",
        "neighborhood": "明志里",
        "location": {
            "lat": 25.0429077,
            "lng": 121.431669
        }
    },
    {
        "name": "明志國小",
        "address": "新生路２號",
        "neighborhood": "明志里",
        "location": {
            "lat": 25.0429077,
            "lng": 121.431669
        }
    },
    {
        "name": "明志市民活動中心",
        "address": "明志路二段４２６號",
        "neighborhood": "明志里",
        "location": {
            "lat": 25.0486919,
            "lng": 121.427348
        }
    },
    {
        "name": "明志國小",
        "address": "新生路２號",
        "neighborhood": "泰友里",
        "location": {
            "lat": 25.0429077,
            "lng": 121.431669
        }
    },
    {
        "name": "明志國小",
        "address": "新生路２號",
        "neighborhood": "泰友里",
        "location": {
            "lat": 25.0429077,
            "lng": 121.431669
        }
    },
    {
        "name": "明志國小",
        "address": "新生路２號",
        "neighborhood": "新明里",
        "location": {
            "lat": 25.0429077,
            "lng": 121.431669
        }
    },
    {
        "name": "明志國小",
        "address": "新生路２號",
        "neighborhood": "新明里",
        "location": {
            "lat": 25.0429077,
            "lng": 121.431669
        }
    },
    {
        "name": "頂泰山巖交誼中心",
        "address": "應化街３２號",
        "neighborhood": "貴子里",
        "location": {
            "lat": 25.0437043,
            "lng": 121.4238902
        }
    },
    {
        "name": "明志科技大學（綜合大樓1樓）",
        "address": "工專路８４號",
        "neighborhood": "貴子里",
        "location": {
            "lat": 25.0403144,
            "lng": 121.422808
        }
    },
    {
        "name": "貴子市民活動中心",
        "address": "工專路２２號",
        "neighborhood": "貴子里",
        "location": {
            "lat": 25.0402257,
            "lng": 121.4229288
        }
    },
    {
        "name": "明志國小",
        "address": "新生路２號",
        "neighborhood": "貴賢里",
        "location": {
            "lat": 25.0429077,
            "lng": 121.431669
        }
    },
    {
        "name": "貴賢市民活動中心",
        "address": "明志路三段１９７號",
        "neighborhood": "貴賢里",
        "location": {
            "lat": 25.0364629,
            "lng": 121.4227483
        }
    },
    {
        "name": "道明幼稚園",
        "address": "明志路三段２９５號",
        "neighborhood": "貴和里",
        "location": {
            "lat": 25.0364629,
            "lng": 121.4227483
        }
    },
    {
        "name": "道明幼稚園",
        "address": "明志路三段２９５號",
        "neighborhood": "貴和里",
        "location": {
            "lat": 25.0364629,
            "lng": 121.4227483
        }
    },
    {
        "name": "貴和市民活動中心",
        "address": "明志路三段３６５號",
        "neighborhood": "貴和里",
        "location": {
            "lat": 25.0364629,
            "lng": 121.4227483
        }
    }
]