[
    {
        "name": "萬順市民活動中心",
        "address": "北深路三段１０７巷２６號",
        "neighborhood": "萬順里",
        "location": {
            "lat": 25.0013408,
            "lng": 121.604192
        }
    },
    {
        "name": "佳麗寶大樓 ",
        "address": "北深路三段３４７號　　",
        "neighborhood": "萬順里",
        "location": {
            "lat": 25.0023815,
            "lng": 121.6042723
        }
    },
    {
        "name": "郵政修護所 ",
        "address": "北深路三段２６４號　",
        "neighborhood": "萬福里",
        "location": {
            "lat": 25.0023815,
            "lng": 121.6042723
        }
    },
    {
        "name": "水尾福德宮  ",
        "address": "北深路三段２８０號旁",
        "neighborhood": "萬福里",
        "location": {
            "lat": 25.0023815,
            "lng": 121.6042723
        }
    },
    {
        "name": "土庫第一市民活動中心(新)",
        "address": "北深路一段８３巷８弄３６號",
        "neighborhood": "土庫里",
        "location": {
            "lat": 25.0098898,
            "lng": 121.6345544
        }
    },
    {
        "name": "土庫第二市民活動中心(舊)",
        "address": "北深路一段１６４號",
        "neighborhood": "土庫里",
        "location": {
            "lat": 25.0106444,
            "lng": 121.6290889
        }
    },
    {
        "name": "深坑國小(一) ",
        "address": "文化街４５號",
        "neighborhood": "深坑里",
        "location": {
            "lat": 25.0013159,
            "lng": 121.620178
        }
    },
    {
        "name": "深坑國小(二) ",
        "address": "文化街４５號",
        "neighborhood": "深坑里",
        "location": {
            "lat": 25.0013159,
            "lng": 121.620178
        }
    },
    {
        "name": "深坑國中(一) ",
        "address": "文化街４１號",
        "neighborhood": "埔新里",
        "location": {
            "lat": 25.0013159,
            "lng": 121.620178
        }
    },
    {
        "name": "深坑國中 (二) ",
        "address": "文化街４１號",
        "neighborhood": "埔新里",
        "location": {
            "lat": 25.0013159,
            "lng": 121.620178
        }
    },
    {
        "name": "深坑國中(三) ",
        "address": "文化街４１號",
        "neighborhood": "埔新里",
        "location": {
            "lat": 25.0013159,
            "lng": 121.620178
        }
    },
    {
        "name": "昇高市民活動中心 ",
        "address": "旺?路２５號",
        "neighborhood": "昇高里",
        "location": {
            "lat": 24.9999861,
            "lng": 121.6223279
        }
    },
    {
        "name": "雲鄉社區會議室",
        "address": "雲鄉路１號地下1樓",
        "neighborhood": "昇高里",
        "location": {
            "lat": 24.9988406,
            "lng": 121.6221478
        }
    },
    {
        "name": "慈聖宮   ",
        "address": "北深路一段３００號　",
        "neighborhood": "賴仲里",
        "location": {
            "lat": 25.0106444,
            "lng": 121.6290889
        }
    },
    {
        "name": "青山雄觀 -北區大樓(休閒室) ",
        "address": "深南路１９０號地下1樓",
        "neighborhood": "賴仲里",
        "location": {
            "lat": 25.0103964,
            "lng": 121.6223845
        }
    },
    {
        "name": "阿柔市民活動中心",
        "address": "阿柔洋６６號對面",
        "neighborhood": "阿柔里",
        "location": {
            "lat": 24.998691,
            "lng": 121.607145
        }
    }
]