{
    "西湖里": [
        {
            "name": "西湖國小合作社",
            "address": "環山路1段25號",
            "phone": "2797-1267",
            "location": {
                "lat": 25.0838299,
                "lng": 121.5656995
            }
        },
        {
            "name": "西湖國小校史室",
            "address": "環山路1段25號",
            "phone": "2797-1267",
            "location": {
                "lat": 25.0838299,
                "lng": 121.5656995
            }
        },
        {
            "name": "西湖國中學習輔導中心(四)",
            "address": "環山路1段27號",
            "phone": "2799-1817轉318",
            "location": {
                "lat": 25.0850272,
                "lng": 121.5656955
            }
        },
        {
            "name": "西湖國中8年1班",
            "address": "環山路1段27號",
            "phone": "2799-1817轉318",
            "location": {
                "lat": 25.0850272,
                "lng": 121.5656955
            }
        }
    ],
    "西康里": [
        {
            "name": "文湖國小1年1班教室",
            "address": "文湖街15號",
            "phone": "2658-3515轉1071",
            "location": {
                "lat": 25.085771,
                "lng": 121.5601224
            }
        },
        {
            "name": "文湖國小1年2班教室",
            "address": "文湖街15號",
            "phone": "2658-3515轉1071",
            "location": {
                "lat": 25.085771,
                "lng": 121.5601224
            }
        },
        {
            "name": "文湖國小2年2班教室",
            "address": "文湖街15號",
            "phone": "2658-3515轉1071",
            "location": {
                "lat": 25.085771,
                "lng": 121.5601224
            }
        },
        {
            "name": "西湖國中慈心園",
            "address": "環山路1段27號",
            "phone": "2799-1817轉310",
            "location": {
                "lat": 25.0850272,
                "lng": 121.5656955
            }
        },
        {
            "name": "西湖國中學習輔導中心(三)",
            "address": "環山路1段27號",
            "phone": "2799-1817轉310",
            "location": {
                "lat": 25.0850272,
                "lng": 121.5656955
            }
        }
    ],
    "西安里": [
        {
            "name": "德明財經科技大學第二閱覽室(1)",
            "address": "環山路1段56號",
            "phone": "2658-5801",
            "location": {
                "lat": 25.0865321,
                "lng": 121.5655065
            }
        },
        {
            "name": "德明財經科技大學第二閱覽室(2)",
            "address": "環山路1段56號",
            "phone": "2658-5801",
            "location": {
                "lat": 25.0865321,
                "lng": 121.5655065
            }
        },
        {
            "name": "德明財經科技大學第二閱覽室(3)",
            "address": "環山路1段56號",
            "phone": "2658-5801",
            "location": {
                "lat": 25.0865321,
                "lng": 121.5655065
            }
        },
        {
            "name": "德明財經科技大學衛生教育室A104",
            "address": "環山路1段56號",
            "phone": "2658-5801",
            "location": {
                "lat": 25.0865321,
                "lng": 121.5655065
            }
        }
    ],
    "港墘里": [
        {
            "name": "港墘區民活動中心",
            "address": "內湖路1段552號",
            "phone": "0972-295503",
            "location": {
                "lat": 25.0792002,
                "lng": 121.5773728
            }
        },
        {
            "name": "內湖高工c105教室",
            "address": "內湖路1段520號",
            "phone": "2657-4874轉122",
            "location": {
                "lat": 25.0796796,
                "lng": 121.5755051
            }
        },
        {
            "name": "內湖高工c112教室",
            "address": "內湖路1段520號",
            "phone": "2657-4874轉122",
            "location": {
                "lat": 25.0796796,
                "lng": 121.5755051
            }
        }
    ],
    "港都里": [
        {
            "name": "麗山國中8年1班教室",
            "address": "內湖路1段629巷42號",
            "phone": "2799-2681轉405",
            "location": {
                "lat": 25.0816165,
                "lng": 121.5756876
            }
        },
        {
            "name": "麗山國中8年3班教室",
            "address": "內湖路1段629巷42號",
            "phone": "2799-2681轉405",
            "location": {
                "lat": 25.0816165,
                "lng": 121.5756876
            }
        },
        {
            "name": "麗山國中8年5班教室",
            "address": "內湖路1段629巷42號",
            "phone": "2799-2681轉405",
            "location": {
                "lat": 25.0816165,
                "lng": 121.5756876
            }
        }
    ],
    "港富里": [
        {
            "name": "內湖國小1年2班教室",
            "address": "內湖路2段41號",
            "phone": "2799-4249轉313",
            "location": {
                "lat": 25.0791258,
                "lng": 121.5802392
            }
        },
        {
            "name": "內湖國小1年3班教室",
            "address": "內湖路2段41號",
            "phone": "2799-4249轉313",
            "location": {
                "lat": 25.0791258,
                "lng": 121.5802392
            }
        },
        {
            "name": "內湖國小1年5班教室",
            "address": "內湖路2段41號",
            "phone": "2799-4249轉313",
            "location": {
                "lat": 25.0791258,
                "lng": 121.5802392
            }
        },
        {
            "name": "內湖國小1年8班教室",
            "address": "內湖路2段41號",
            "phone": "2799-4249轉313",
            "location": {
                "lat": 25.0791258,
                "lng": 121.5802392
            }
        },
        {
            "name": "內湖國小3年1班教室",
            "address": "內湖路2段41號",
            "phone": "2799-4249轉313",
            "location": {
                "lat": 25.0791258,
                "lng": 121.5802392
            }
        }
    ],
    "港華里": [
        {
            "name": "港華區民活動中心",
            "address": "環山路2段68巷14號1樓",
            "phone": "0988-179936",
            "location": {
                "lat": 25.0867308,
                "lng": 121.5750587
            }
        },
        {
            "name": "麗山國中9年21班教室",
            "address": "內湖路1段629巷42號",
            "phone": "2799-1867轉405",
            "location": {
                "lat": 25.0816165,
                "lng": 121.5756876
            }
        },
        {
            "name": "麗山國中7年21班教室",
            "address": "內湖路1段629巷42號",
            "phone": "2799-1867轉405",
            "location": {
                "lat": 25.0816165,
                "lng": 121.5756876
            }
        },
        {
            "name": "麗山國小交通安全教室",
            "address": "港華街100號",
            "phone": "2657-4158轉511",
            "location": {
                "lat": 25.0836791,
                "lng": 121.5724649
            }
        },
        {
            "name": "麗山國小課後照顧班",
            "address": "港華街100號",
            "phone": "2657-4158轉511",
            "location": {
                "lat": 25.0836791,
                "lng": 121.5724649
            }
        }
    ],
    "內湖里": [
        {
            "name": "碧湖國小411教室",
            "address": "金龍路100號",
            "phone": "2790-7161",
            "location": {
                "lat": 25.0853115,
                "lng": 121.5911103
            }
        },
        {
            "name": "碧湖國小412教室",
            "address": "金龍路100號",
            "phone": "2790-7161",
            "location": {
                "lat": 25.0853115,
                "lng": 121.5911103
            }
        },
        {
            "name": "碧湖國小教師研究室",
            "address": "金龍路100號",
            "phone": "2790-7161",
            "location": {
                "lat": 25.0853115,
                "lng": 121.5911103
            }
        }
    ],
    "湖濱里": [
        {
            "name": "濱湖皇家大廈管理委員會交誼廳",
            "address": "內湖路2段103巷70號",
            "phone": "2799-7207轉叫",
            "location": {
                "lat": 25.082956,
                "lng": 121.58072
            }
        },
        {
            "name": "湖濱區民活動中心",
            "address": "內湖路2段344號",
            "phone": "2790-6289轉叫",
            "location": {
                "lat": 25.0818286,
                "lng": 121.59002
            }
        },
        {
            "name": "內湖區公民會館",
            "address": "內湖路2段342號",
            "phone": "2790-6289轉叫",
            "location": {
                "lat": 25.0818415,
                "lng": 121.5898246
            }
        },
        {
            "name": "貿七國民住宅管理委員會辦公室",
            "address": "內湖路2段179巷46弄29號",
            "phone": "2793-1737轉叫",
            "location": {
                "lat": 25.0832742,
                "lng": 121.5852965
            }
        },
        {
            "name": "碧湖區民活動中心",
            "address": "內湖路2段179巷81弄16號",
            "phone": "2790-0293轉叫",
            "location": {
                "lat": 25.0855142,
                "lng": 121.582411
            }
        }
    ],
    "紫星里": [
        {
            "name": "康寧國小1年2班教室",
            "address": "星雲街121號",
            "phone": "2790-1237轉140",
            "location": {
                "lat": 25.080037,
                "lng": 121.5950035
            }
        },
        {
            "name": "康寧國小1年3班教室",
            "address": "星雲街121號",
            "phone": "2790-1237轉140",
            "location": {
                "lat": 25.080037,
                "lng": 121.5950035
            }
        },
        {
            "name": "紫星區民活動中心",
            "address": "康寧路1段20號",
            "phone": "8791-1313轉叫",
            "location": {
                "lat": 25.0804895,
                "lng": 121.5915206
            }
        },
        {
            "name": "方濟中學9年崇班",
            "address": "成功路3段61號",
            "phone": "2791-0278轉5",
            "location": {
                "lat": 25.0773094,
                "lng": 121.5905296
            }
        }
    ],
    "大湖里": [
        {
            "name": "大湖國小課輔一",
            "address": "大湖山莊街170號",
            "phone": "2791-5870",
            "location": {
                "lat": 25.0881206,
                "lng": 121.6004795
            }
        },
        {
            "name": "大湖國小課輔二",
            "address": "大湖山莊街170號",
            "phone": "2791-5870",
            "location": {
                "lat": 25.0881206,
                "lng": 121.6004795
            }
        },
        {
            "name": "大湖國小親職教室",
            "address": "大湖山莊街170號",
            "phone": "2791-5870",
            "location": {
                "lat": 25.0881206,
                "lng": 121.6004795
            }
        }
    ],
    "金龍里": [
        {
            "name": "金龍區民活動中心",
            "address": "金龍路136-1號2樓",
            "phone": "0972-295501",
            "location": {
                "lat": 25.0857648,
                "lng": 121.590059
            }
        },
        {
            "name": "台北市金龍發展中心1樓",
            "address": "金龍路136-1號1樓",
            "phone": "2793-3059",
            "location": {
                "lat": 25.0857648,
                "lng": 121.590059
            }
        },
        {
            "name": "基督教浸信會榮恩堂",
            "address": "內湖路3段139號",
            "phone": "2790-1197",
            "location": {
                "lat": 25.0868736,
                "lng": 121.5897062
            }
        }
    ],
    "金瑞里": [
        {
            "name": "民宅地下室",
            "address": "內湖路3段187巷17號地下室",
            "phone": "2790-9128",
            "location": {
                "lat": 25.079573,
                "lng": 121.5916974
            }
        },
        {
            "name": "金瑞里辦公處",
            "address": "金龍路234號1樓",
            "phone": "2791-0152",
            "location": {
                "lat": 25.0884501,
                "lng": 121.5864773
            }
        },
        {
            "name": "民宅地下室",
            "address": "內湖路3段294號地下室",
            "phone": "2790-3815",
            "location": {
                "lat": 25.0897003,
                "lng": 121.5833717
            }
        },
        {
            "name": "民宅地下室",
            "address": "內湖路3段294號地下室",
            "phone": "2790-3815",
            "location": {
                "lat": 25.0897003,
                "lng": 121.5833717
            }
        }
    ],
    "碧山里": [
        {
            "name": "碧興宮遮雨棚下方",
            "address": "碧山路28號對面",
            "phone": "2791-9636",
            "location": {
                "lat": 25.098766,
                "lng": 121.588611
            }
        },
        {
            "name": "金龍福德廟旁里民休息室",
            "address": "內湖路3段60巷15號對面",
            "phone": "2790-9391",
            "location": {
                "lat": 25.0705859,
                "lng": 121.6097805
            }
        },
        {
            "name": "碧山區民活動中心室內（一）",
            "address": "內湖路3段60巷8號地下1樓",
            "phone": "0988-179-939",
            "location": {
                "lat": 25.0897003,
                "lng": 121.5833717
            }
        },
        {
            "name": "碧山區民活動中心室內（二）",
            "address": "內湖路3段60巷8號地下1樓",
            "phone": "0988-179-939",
            "location": {
                "lat": 25.0897003,
                "lng": 121.5833717
            }
        },
        {
            "name": "碧山市場內辦公室",
            "address": "內湖路3段60巷8弄12-1號",
            "phone": "0936-035222",
            "location": {
                "lat": 25.0876122,
                "lng": 121.5916304
            }
        }
    ],
    "紫雲里": [
        {
            "name": "康寧國小1年1班教室",
            "address": "星雲街121號",
            "phone": "2790-1237轉140",
            "location": {
                "lat": 25.080037,
                "lng": 121.5950035
            }
        },
        {
            "name": "金城春曉社區健身房",
            "address": "康寧路1段267號",
            "phone": "2794-6526",
            "location": {
                "lat": 25.0787631,
                "lng": 121.5981733
            }
        },
        {
            "name": "金城春曉社區文康中心",
            "address": "康寧路1段267號",
            "phone": "2794-6526",
            "location": {
                "lat": 25.0787631,
                "lng": 121.5981733
            }
        }
    ],
    "清白里": [
        {
            "name": "康寧國小綜合教室",
            "address": "星雲街121號",
            "phone": "2790-1237轉140",
            "location": {
                "lat": 25.080037,
                "lng": 121.5950035
            }
        },
        {
            "name": "康寧國小潛能開發中心",
            "address": "星雲街121號",
            "phone": "2790-1237轉140",
            "location": {
                "lat": 25.080037,
                "lng": 121.5950035
            }
        },
        {
            "name": "清白區民活動中心大教室",
            "address": "星雲街161巷3號",
            "phone": "2792-5828轉227",
            "location": {
                "lat": 25.0811491,
                "lng": 121.596101
            }
        },
        {
            "name": "清白區民活動中心小教室",
            "address": "星雲街161巷3號",
            "phone": "2792-5828轉227",
            "location": {
                "lat": 25.0811491,
                "lng": 121.596101
            }
        }
    ],
    "葫洲里": [
        {
            "name": "明湖國中7年20班教室",
            "address": "康寧路3段60號 ",
            "phone": "26320616",
            "location": {
                "lat": 25.0706203,
                "lng": 121.6107507
            }
        },
        {
            "name": "明湖國中8年20班教室",
            "address": "康寧路3段60號",
            "phone": "26320616",
            "location": {
                "lat": 25.0706203,
                "lng": 121.6107507
            }
        },
        {
            "name": "明湖國中9年20班教室",
            "address": "康寧路3段60號",
            "phone": "26320616",
            "location": {
                "lat": 25.0706203,
                "lng": 121.6107507
            }
        },
        {
            "name": "明湖國中8年6班教室",
            "address": "康寧路3段60號",
            "phone": "26320616",
            "location": {
                "lat": 25.0706203,
                "lng": 121.6107507
            }
        }
    ],
    "紫陽里": [
        {
            "name": "內湖國中916教室",
            "address": "陽光街1號",
            "phone": "2790-0843",
            "location": {
                "lat": 25.077035,
                "lng": 121.5886895
            }
        },
        {
            "name": "內湖國中901教室",
            "address": "陽光街1號",
            "phone": "2790-0843",
            "location": {
                "lat": 25.077035,
                "lng": 121.5886895
            }
        },
        {
            "name": "內湖高中221教室",
            "address": "文德路218號",
            "phone": "2797-7035",
            "location": {
                "lat": 25.0783889,
                "lng": 121.5865659
            }
        },
        {
            "name": "內湖高中121教室",
            "address": "文德路218號",
            "phone": "2797-7035",
            "location": {
                "lat": 25.0783889,
                "lng": 121.5865659
            }
        }
    ],
    "瑞陽里": [
        {
            "name": "陽光區民活動中心",
            "address": "文德路66巷38弄14號",
            "phone": "0972-295525",
            "location": {
                "lat": 25.0755458,
                "lng": 121.5813029
            }
        },
        {
            "name": "基督教貴格會內湖教會",
            "address": "文德路66巷49弄5號",
            "phone": "27976651",
            "location": {
                "lat": 25.0772459,
                "lng": 121.5820736
            }
        },
        {
            "name": "瑞陽里民活動場所",
            "address": "文德路66巷69弄10號",
            "phone": "27991392",
            "location": {
                "lat": 25.0767729,
                "lng": 121.5824703
            }
        },
        {
            "name": "海軍湖光新城自治委員會",
            "address": "文德路66巷14弄2號",
            "phone": "27974709",
            "location": {
                "lat": 25.0772645,
                "lng": 121.5815226
            }
        }
    ],
    "瑞光里": [
        {
            "name": "臺北市立內湖幼兒園茉莉班教室",
            "address": "陽光街265巷9號",
            "phone": "2797-3504",
            "location": {
                "lat": 25.0736526,
                "lng": 121.5806934
            }
        },
        {
            "name": "臺北市立內湖幼兒園中庭",
            "address": "陽光街265巷9號",
            "phone": "2797-3504",
            "location": {
                "lat": 25.0736526,
                "lng": 121.5806934
            }
        },
        {
            "name": "瑞光社區管理委員會",
            "address": "文德路22巷71號",
            "phone": "2658-6181",
            "location": {
                "lat": 25.0749117,
                "lng": 121.5807065
            }
        }
    ],
    "五分里": [
        {
            "name": "東湖國小1年8班教室",
            "address": "東湖路115號",
            "phone": "2633-9984",
            "location": {
                "lat": 25.0684581,
                "lng": 121.6158978
            }
        },
        {
            "name": "東湖國小1年9班教室",
            "address": "東湖路115號",
            "phone": "2633-9984",
            "location": {
                "lat": 25.0684581,
                "lng": 121.6158978
            }
        },
        {
            "name": "東湖國小4年9班教室",
            "address": "東湖路115號",
            "phone": "2633-9984",
            "location": {
                "lat": 25.0684581,
                "lng": 121.6158978
            }
        },
        {
            "name": "南湖國小1年1班教室",
            "address": "康寧路3段200號",
            "phone": "2632-1296",
            "location": {
                "lat": 25.0690737,
                "lng": 121.6120356
            }
        },
        {
            "name": "南湖國小1年2班教室",
            "address": "康寧路3段200號",
            "phone": "2632-1296",
            "location": {
                "lat": 25.0690737,
                "lng": 121.6120356
            }
        },
        {
            "name": "南湖國小1年3班教室",
            "address": "康寧路3段200號",
            "phone": "2632-1296",
            "location": {
                "lat": 25.0690737,
                "lng": 121.6120356
            }
        }
    ],
    "東湖里": [
        {
            "name": "東湖國小4年10班教室(115號教室)",
            "address": "東湖路115號",
            "phone": "2633-9984",
            "location": {
                "lat": 25.0684581,
                "lng": 121.6158978
            }
        },
        {
            "name": "東湖國小4年12班教室(117號教室)",
            "address": "東湖路115號",
            "phone": "2633-9984",
            "location": {
                "lat": 25.0684581,
                "lng": 121.6158978
            }
        },
        {
            "name": "東湖國小原住民教室(118號教室)",
            "address": "東湖路115號",
            "phone": "2633-9984",
            "location": {
                "lat": 25.0684581,
                "lng": 121.6158978
            }
        },
        {
            "name": "東湖國小1年1班教室(102號教室)",
            "address": "東湖路115號",
            "phone": "2633-9984",
            "location": {
                "lat": 25.0684581,
                "lng": 121.6158978
            }
        }
    ],
    "樂康里": [
        {
            "name": "東湖國中7年1班教室",
            "address": "康樂街131號",
            "phone": "2633-0373轉655",
            "location": {
                "lat": 25.0721658,
                "lng": 121.6194887
            }
        },
        {
            "name": "東湖國中7年2班教室",
            "address": "康樂街131號",
            "phone": "2633-0373轉655",
            "location": {
                "lat": 25.0721658,
                "lng": 121.6194887
            }
        },
        {
            "name": "東湖國中7年3班教室",
            "address": "康樂街131號",
            "phone": "2633-0373轉655",
            "location": {
                "lat": 25.0721658,
                "lng": 121.6194887
            }
        },
        {
            "name": "東湖國中7年4班教室",
            "address": "康樂街131號",
            "phone": "2633-0373轉655",
            "location": {
                "lat": 25.0721658,
                "lng": 121.6194887
            }
        },
        {
            "name": "東湖國中7年5班教室",
            "address": "康樂街131號",
            "phone": "2633-0373轉655",
            "location": {
                "lat": 25.0721658,
                "lng": 121.6194887
            }
        }
    ],
    "內溝里": [
        {
            "name": "七星生態花園專業教室二",
            "address": "康樂街191巷臨16號",
            "phone": "2631-4601",
            "location": {
                "lat": 25.0749081,
                "lng": 121.6206104
            }
        },
        {
            "name": "七星生態花園專業教室一",
            "address": "康樂街191巷臨16號",
            "phone": "2631-4601",
            "location": {
                "lat": 25.0749081,
                "lng": 121.6206104
            }
        },
        {
            "name": "內溝溪生態展示館",
            "address": "康樂街236-3號",
            "phone": "2634-7851",
            "location": {
                "lat": 25.0872442,
                "lng": 121.6228959
            }
        }
    ],
    "週美里": [
        {
            "name": "週美里里民活動廣場",
            "address": "潭美街100號",
            "phone": "2792-7531",
            "location": {
                "lat": 25.0907063,
                "lng": 121.5609885
            }
        },
        {
            "name": "週美里里民活動廣場",
            "address": "潭美街100號",
            "phone": "2792-7531",
            "location": {
                "lat": 25.0907063,
                "lng": 121.5609885
            }
        },
        {
            "name": "週美里里民活動廣場",
            "address": "潭美街100號",
            "phone": "2792-7531",
            "location": {
                "lat": 25.0907063,
                "lng": 121.5609885
            }
        },
        {
            "name": "美善公園",
            "address": "行善路59巷20弄2號",
            "phone": "2792-7531",
            "location": {
                "lat": 25.0574012,
                "lng": 121.5786635
            }
        }
    ],
    "行善里": [
        {
            "name": "福音貴格教會",
            "address": "新明路452號",
            "phone": "8792-7633",
            "location": {
                "lat": 25.053842,
                "lng": 121.578994
            }
        },
        {
            "name": "新明公園",
            "address": "新明路428巷19號對面",
            "phone": "0988-955208",
            "location": {
                "lat": 25.0543329,
                "lng": 121.578691
            }
        },
        {
            "name": "妙善托兒所",
            "address": "行善路25巷13號1樓",
            "phone": "0928-125710",
            "location": {
                "lat": 25.056124,
                "lng": 121.576167
            }
        },
        {
            "name": "行善區民活動中心大廳(一)",
            "address": "行善路25巷13號2樓",
            "phone": "0935-178239",
            "location": {
                "lat": 25.056124,
                "lng": 121.576167
            }
        }
    ],
    "石潭里": [
        {
            "name": "潭美國小1年1班教室",
            "address": "新明路22號",
            "phone": "2791-7334",
            "location": {
                "lat": 25.0603451,
                "lng": 121.5905901
            }
        },
        {
            "name": "潭美國小1年2班教室",
            "address": "新明路22號",
            "phone": "2791-7334",
            "location": {
                "lat": 25.0603451,
                "lng": 121.5905901
            }
        }
    ],
    "湖興里": [
        {
            "name": "新湖國小1樓大會議室右側",
            "address": "民權東路6段138號",
            "phone": "2796-3721",
            "location": {
                "lat": 25.068804,
                "lng": 121.5887456
            }
        },
        {
            "name": "新湖國小1樓大會議室左側",
            "address": "民權東路6段138號",
            "phone": "2796-3721",
            "location": {
                "lat": 25.068804,
                "lng": 121.5887456
            }
        },
        {
            "name": "新湖國小1年1教室",
            "address": "民權東路6段138號",
            "phone": "2796-3721",
            "location": {
                "lat": 25.068804,
                "lng": 121.5887456
            }
        },
        {
            "name": "新湖國小1年2教室",
            "address": "民權東路6段138號",
            "phone": "2796-3721",
            "location": {
                "lat": 25.068804,
                "lng": 121.5887456
            }
        }
    ],
    "湖元里": [
        {
            "name": "三民國中8年1班教室",
            "address": "民權東路6段45號",
            "phone": "2792-4772",
            "location": {
                "lat": 25.069154,
                "lng": 121.5864073
            }
        },
        {
            "name": "三民國中8年2班教室",
            "address": "民權東路6段45號",
            "phone": "2792-4772",
            "location": {
                "lat": 25.069154,
                "lng": 121.5864073
            }
        },
        {
            "name": "三民國中8年3班教室",
            "address": "民權東路6段45號",
            "phone": "2792-4772",
            "location": {
                "lat": 25.069154,
                "lng": 121.5864073
            }
        }
    ],
    "安湖里": [
        {
            "name": "東湖國小1年3班教室",
            "address": "東湖路115號",
            "phone": "2633-9984",
            "location": {
                "lat": 25.0684581,
                "lng": 121.6158978
            }
        },
        {
            "name": "東湖國小1年4班教室",
            "address": "東湖路115號",
            "phone": "2633-9984",
            "location": {
                "lat": 25.0684581,
                "lng": 121.6158978
            }
        },
        {
            "name": "東湖國小1年5班教室",
            "address": "東湖路115號",
            "phone": "2633-9984",
            "location": {
                "lat": 25.0684581,
                "lng": 121.6158978
            }
        },
        {
            "name": "東湖國小1年6班教室",
            "address": "東湖路115號",
            "phone": "2633-9984",
            "location": {
                "lat": 25.0684581,
                "lng": 121.6158978
            }
        }
    ],
    "秀湖里": [
        {
            "name": "大湖國小自然教室",
            "address": "大湖山莊街170號",
            "phone": "2791-5870",
            "location": {
                "lat": 25.0881206,
                "lng": 121.6004795
            }
        },
        {
            "name": "大湖國小活動教室(四)",
            "address": "大湖山莊街170號",
            "phone": "2791-5870",
            "location": {
                "lat": 25.0881206,
                "lng": 121.6004795
            }
        },
        {
            "name": "大湖國小機具室(二)",
            "address": "大湖山莊街170號",
            "phone": "2791-5870",
            "location": {
                "lat": 25.0881206,
                "lng": 121.6004795
            }
        }
    ],
    "安泰里": [
        {
            "name": "安泰里土地公廟",
            "address": "安泰街54巷6號",
            "phone": "0926-029279",
            "location": {
                "lat": 25.0732938,
                "lng": 121.6192672
            }
        },
        {
            "name": "綠之湖社區管理委員會",
            "address": "安泰街87-93號等",
            "phone": "2631-9765",
            "location": {
                "lat": 25.0745512,
                "lng": 121.6168522
            }
        },
        {
            "name": "雙壐名宅大廈1樓中庭",
            "address": "安泰街125巷6-8號等",
            "phone": "2634-1827",
            "location": {
                "lat": 25.0732938,
                "lng": 121.6192672
            }
        }
    ],
    "金湖里": [
        {
            "name": "麗湖國小地下室視聽中心",
            "address": "金湖路363巷8號",
            "phone": "2634-3888",
            "location": {
                "lat": 25.072992,
                "lng": 121.601146
            }
        },
        {
            "name": "麗湖國小社區成長教室",
            "address": "金湖路363巷8號",
            "phone": "2634-3888",
            "location": {
                "lat": 25.072992,
                "lng": 121.601146
            }
        },
        {
            "name": "麗湖國小資源班教室(一)",
            "address": "金湖路363巷8號",
            "phone": "2634-3888",
            "location": {
                "lat": 25.072992,
                "lng": 121.601146
            }
        },
        {
            "name": "麗湖國小資源班教室(二)",
            "address": "金湖路363巷8號",
            "phone": "2634-3888",
            "location": {
                "lat": 25.072992,
                "lng": 121.601146
            }
        },
        {
            "name": "麗湖國小資源班辦公室",
            "address": "金湖路363巷8號",
            "phone": "2634-3888",
            "location": {
                "lat": 25.072992,
                "lng": 121.601146
            }
        }
    ],
    "康寧里": [
        {
            "name": "康寧醫護暨管理專科學校(1樓藝文中心)",
            "address": "康寧路3段75巷137號",
            "phone": "2632-1181轉422",
            "location": {
                "lat": 25.0751696,
                "lng": 121.609939
            }
        },
        {
            "name": "明湖國小1年1班教室",
            "address": "康寧路3段105號 ",
            "phone": "2632-3477",
            "location": {
                "lat": 25.0711096,
                "lng": 121.6106806
            }
        },
        {
            "name": "明湖國小1年2班教室",
            "address": "康寧路3段105號 ",
            "phone": "2632-3477",
            "location": {
                "lat": 25.0711096,
                "lng": 121.6106806
            }
        },
        {
            "name": "明湖國小1年3班教室",
            "address": "康寧路3段105號",
            "phone": "2632-3477",
            "location": {
                "lat": 25.0711096,
                "lng": 121.6106806
            }
        },
        {
            "name": "明湖國小潛能教室(三)",
            "address": "康寧路3段105號",
            "phone": "2632-3477",
            "location": {
                "lat": 25.0711096,
                "lng": 121.6106806
            }
        }
    ],
    "明湖里": [
        {
            "name": "明湖國小英語教室",
            "address": "康寧路3段105號",
            "phone": "2632-3477",
            "location": {
                "lat": 25.0711096,
                "lng": 121.6106806
            }
        },
        {
            "name": "明湖國小志工團教室(家長會)",
            "address": "康寧路3段105號",
            "phone": "2632-3477",
            "location": {
                "lat": 25.0711096,
                "lng": 121.6106806
            }
        },
        {
            "name": "明湖國小潛能中心(一)",
            "address": "康寧路3段105號",
            "phone": "2632-3477",
            "location": {
                "lat": 25.0711096,
                "lng": 121.6106806
            }
        }
    ],
    "蘆洲里": [
        {
            "name": "內湖垃圾焚化廠能源利用中心1樓大廳",
            "address": "安康路290號(葫蘆洲運動公園內旁建物)",
            "phone": "2796-1833轉352",
            "location": {
                "lat": 25.0465658,
                "lng": 121.5488669
            }
        }
    ],
    "麗山里": [
        {
            "name": "麗山國小1年1班教室",
            "address": "港華街100號",
            "phone": "2657-4158轉511",
            "location": {
                "lat": 25.0836791,
                "lng": 121.5724649
            }
        },
        {
            "name": "麗山國小1年2班教室",
            "address": "港華街100號",
            "phone": "2657-4158轉511",
            "location": {
                "lat": 25.0836791,
                "lng": 121.5724649
            }
        },
        {
            "name": "麗山國小1年3班教室",
            "address": "港華街100號",
            "phone": "2657-4158轉511",
            "location": {
                "lat": 25.0836791,
                "lng": 121.5724649
            }
        }
    ],
    "寶湖里": [
        {
            "name": "新湖國小1年3班教室",
            "address": "民權東路6段138號",
            "phone": "2796-3721",
            "location": {
                "lat": 25.068804,
                "lng": 121.5887456
            }
        },
        {
            "name": "新湖國小125健體教室",
            "address": "民權東路6段138號",
            "phone": "2796-3721",
            "location": {
                "lat": 25.068804,
                "lng": 121.5887456
            }
        },
        {
            "name": "新湖國小配膳室旁風雨操場",
            "address": "民權東路6段138號",
            "phone": "2796-3721",
            "location": {
                "lat": 25.068804,
                "lng": 121.5887456
            }
        },
        {
            "name": "新湖國小健康中心旁風雨操場",
            "address": "民權東路6段138號",
            "phone": "2796-3721",
            "location": {
                "lat": 25.068804,
                "lng": 121.5887456
            }
        }
    ],
    "南湖里": [
        {
            "name": "明湖國中8年7班教室",
            "address": "康寧路3段60號",
            "phone": "2632-0616",
            "location": {
                "lat": 25.0706203,
                "lng": 121.6107507
            }
        },
        {
            "name": "明湖國中8年8班教室",
            "address": "康寧路3段60號",
            "phone": "2632-0616",
            "location": {
                "lat": 25.0706203,
                "lng": 121.6107507
            }
        },
        {
            "name": "南湖國小1年4班教室",
            "address": "康寧路3段200號",
            "phone": "2632-1296轉51",
            "location": {
                "lat": 25.0690737,
                "lng": 121.6120356
            }
        }
    ]
}