[
    {
        "name": "正守里固定里民活動場所",
        "address": "市民大道2段67巷26號１樓",
        "neighborhood": [
            "正守里"
        ],
        "phone": "0972-295601",
        "location": {
            "lat": 25.0473034,
            "lng": 121.5285346
        },
        "power": 1
    },
    {
        "name": "林森區民活動中心",
        "address": "林森北路67巷7號1樓",
        "neighborhood": [
            "正守里"
        ],
        "phone": "0988-179764",
        "location": {
            "lat": 25.0486467,
            "lng": 121.5249137
        },
        "power": 1
    },
    {
        "name": "正義里固定里民活動場所",
        "address": "林森北路133巷78號",
        "neighborhood": [
            "正義里"
        ],
        "phone": "0972-295602",
        "location": {
            "lat": 25.0507024,
            "lng": 121.5274184
        },
        "power": 1
    },
    {
        "name": "環保局中正區清潔隊",
        "address": "長安東路1段89號",
        "neighborhood": [
            "正義里"
        ],
        "phone": "25817314",
        "location": {
            "lat": 25.0483296,
            "lng": 121.528758
        },
        "power": 1
    },
    {
        "name": "黃秀莊先生宅",
        "address": "林森北路145巷45號",
        "neighborhood": [
            "正義里"
        ],
        "phone": "25116670",
        "location": {
            "lat": 25.0511939,
            "lng": 121.5267291
        },
        "power": 1
    },
    {
        "name": "中山基督長老教會",
        "address": "林森北路62號",
        "neighborhood": [
            "正得里"
        ],
        "phone": "25518480#117",
        "location": {
            "lat": 25.0613624,
            "lng": 121.5269007
        },
        "power": 1
    },
    {
        "name": "臺北會幕堂",
        "address": "中山北路1段105巷19號",
        "neighborhood": [
            "正得里"
        ],
        "phone": "25712150",
        "location": {
            "lat": 25.0507234,
            "lng": 121.5240239
        },
        "power": 1
    },
    {
        "name": "民安區民活動中心",
        "address": "長安西路3號3樓",
        "neighborhood": [
            "民安里"
        ],
        "phone": "25031369#529",
        "location": {
            "lat": 25.0502099,
            "lng": 121.5209542
        },
        "power": 1
    },
    {
        "name": "中山區市民運動中心",
        "address": "中山北路2段44巷2號1樓",
        "neighborhood": [
            "民安里"
        ],
        "phone": "0972-295604",
        "location": {
            "lat": 25.0548895,
            "lng": 121.5213932
        },
        "power": 1
    },
    {
        "name": "捷運工程局行政大樓",
        "address": "中山北路2段48巷7號1樓",
        "neighborhood": [
            "民安里"
        ],
        "phone": "25215550",
        "location": {
            "lat": 25.0557911,
            "lng": 121.5210944
        },
        "power": 1
    },
    {
        "name": "公理堂",
        "address": "中山北路2段45巷39號",
        "neighborhood": [
            "康樂里"
        ],
        "phone": "25118023",
        "location": {
            "lat": 25.054464,
            "lng": 121.5250253
        },
        "power": 1
    },
    {
        "name": "康樂區民活動中心",
        "address": "南京東路1段35號(林森公園內)",
        "neighborhood": [
            "康樂里"
        ],
        "phone": "0972-295605",
        "location": {
            "lat": 25.0524859,
            "lng": 121.5264659
        },
        "power": 1
    },
    {
        "name": "中山區民活動中心",
        "address": "中山北路2段59巷21號2樓",
        "neighborhood": [
            "中山里"
        ],
        "phone": "0972-295606",
        "location": {
            "lat": 25.055903,
            "lng": 121.524151
        },
        "power": 3
    },
    {
        "name": "新福宮",
        "address": "新生北路2段62巷35號",
        "neighborhood": [
            "中山里"
        ],
        "phone": "25631982",
        "location": {
            "lat": 25.056306,
            "lng": 121.5259367
        },
        "power": 1
    },
    {
        "name": "原菸酒公賣局中山配銷處",
        "address": "民生東路1段21號",
        "neighborhood": [
            "聚盛里"
        ],
        "phone": "0972-295607",
        "location": {
            "lat": 25.0584215,
            "lng": 121.5240033
        },
        "power": 3
    },
    {
        "name": "文昌宮守望相助隊協勤中心",
        "address": "民生西路45巷7弄20號",
        "neighborhood": [
            "集英里"
        ],
        "phone": "25210366",
        "location": {
            "lat": 25.0586993,
            "lng": 121.5214948
        },
        "power": 1
    },
    {
        "name": "九府仙師廟",
        "address": "民權西路70巷33號",
        "neighborhood": [
            "集英里"
        ],
        "phone": "25317349",
        "location": {
            "lat": 25.0618453,
            "lng": 121.5199836
        },
        "power": 1
    },
    {
        "name": "圓明宮",
        "address": "中山北路2段128巷3之2號",
        "neighborhood": [
            "集英里"
        ],
        "phone": "25610023",
        "location": {
            "lat": 25.0618732,
            "lng": 121.5218797
        },
        "power": 1
    },
    {
        "name": "崇德宮",
        "address": "撫順街41巷臨2之10號",
        "neighborhood": [
            "集英里"
        ],
        "phone": "25966402",
        "location": {
            "lat": 25.0637188,
            "lng": 121.5194196
        },
        "power": 1
    },
    {
        "name": "新興國中會議室",
        "address": "林森北路511號",
        "neighborhood": [
            "聚葉里"
        ],
        "phone": "25714211",
        "location": {
            "lat": 25.0619756,
            "lng": 121.5257455
        },
        "power": 2
    },
    {
        "name": "中山國小",
        "address": "民權東路1段69號",
        "neighborhood": [
            "恆安里",
            "晴光里",
            "圓山里"
        ],
        "phone": "25914085",
        "location": {
            "lat": 25.0628439,
            "lng": 121.5256353
        },
        "power": 9
    },
    {
        "name": "私立稻江護家",
        "address": "新生北路3段55號",
        "neighborhood": [
            "新庄里"
        ],
        "phone": "25955161",
        "location": {
            "lat": 25.0653484,
            "lng": 121.5285873
        },
        "power": 3
    },
    {
        "name": "崇實區民活動中心1樓閱覽室",
        "address": "通北街143號1樓",
        "neighborhood": [
            "劍潭里"
        ],
        "phone": "25335530",
        "location": {
            "lat": 25.084918,
            "lng": 121.538043
        },
        "power": 1
    },
    {
        "name": "圓山新城社區管理委員會",
        "address": "通北街65巷2弄2號B1",
        "neighborhood": [
            "劍潭里"
        ],
        "phone": "25335530",
        "location": {
            "lat": 25.0829104,
            "lng": 121.5397915
        },
        "power": 1
    },
    {
        "name": "大直國小",
        "address": "大直街2號",
        "neighborhood": [
            "大直里"
        ],
        "phone": "25333953",
        "location": {
            "lat": 25.0804685,
            "lng": 121.5464344
        },
        "power": 5
    },
    {
        "name": "永安國小",
        "address": "明水路397巷19弄1號",
        "neighborhood": [
            "成功里",
            "永安里"
        ],
        "phone": "25335672",
        "location": {
            "lat": 25.0787761,
            "lng": 121.5494063
        },
        "power": 9
    },
    {
        "name": "濱江國中",
        "address": "樂群二路262號",
        "neighborhood": [
            "金泰里"
        ],
        "phone": "85020126",
        "location": {
            "lat": 25.0797333,
            "lng": 121.5608802
        },
        "power": 4
    },
    {
        "name": "北安區民活動中心",
        "address": "北安路７５９巷６號１樓",
        "neighborhood": [
            "北安里"
        ],
        "phone": "85098032",
        "location": {
            "lat": 25.081336,
            "lng": 121.548414
        },
        "power": 1
    },
    {
        "name": "劍潭古寺",
        "address": "北安路８０５巷６號",
        "neighborhood": [
            "北安里"
        ],
        "phone": "25323834",
        "location": {
            "lat": 25.086177,
            "lng": 121.5553568
        },
        "power": 1
    },
    {
        "name": "私立稻江護家",
        "address": "新生北路３段５５號",
        "neighborhood": [
            "新喜里"
        ],
        "phone": "25955161",
        "location": {
            "lat": 25.0653484,
            "lng": 121.5285873
        },
        "power": 3
    },
    {
        "name": "花國鮮花禮品行",
        "address": "松江路402巷8弄6號",
        "neighborhood": [
            "新福里"
        ],
        "phone": "25856666",
        "location": {
            "lat": 25.0637008,
            "lng": 121.5325678
        },
        "power": 1
    },
    {
        "name": "聖道明教會",
        "address": "吉林路378號",
        "neighborhood": [
            "新福里"
        ],
        "phone": "25942294",
        "location": {
            "lat": 25.0646299,
            "lng": 121.530001
        },
        "power": 1
    },
    {
        "name": "亞都麗緻飯店",
        "address": "新生北路3段3巷55號",
        "neighborhood": [
            "新福里"
        ],
        "phone": "25971234",
        "location": {
            "lat": 25.06317,
            "lng": 121.5296312
        },
        "power": 1
    },
    {
        "name": "雙境廟",
        "address": "松江路235巷22號",
        "neighborhood": [
            "松江里"
        ],
        "phone": "25024366",
        "location": {
            "lat": 25.0587063,
            "lng": 121.5341515
        },
        "power": 1
    },
    {
        "name": "康寧大廈",
        "address": "松江路287號",
        "neighborhood": [
            "松江里"
        ],
        "phone": "0933-869000",
        "location": {
            "lat": 25.0604407,
            "lng": 121.5333463
        },
        "power": 1
    },
    {
        "name": "康寧大廈",
        "address": "松江路293號",
        "neighborhood": [
            "松江里"
        ],
        "phone": "0933-869000",
        "location": {
            "lat": 25.060878,
            "lng": 121.533538
        },
        "power": 1
    },
    {
        "name": "胡世芳車庫",
        "address": "建國北路2段258巷15號",
        "neighborhood": [
            "松江里"
        ],
        "phone": "25023702",
        "location": {
            "lat": 25.061892,
            "lng": 121.5359344
        },
        "power": 1
    },
    {
        "name": "正光幼稚園",
        "address": "松江路362巷15號",
        "neighborhood": [
            "新生里"
        ],
        "phone": "25373839",
        "location": {
            "lat": 25.0620354,
            "lng": 121.5324036
        },
        "power": 1
    },
    {
        "name": "沈剛宅",
        "address": "民權東路2段92巷2弄16號",
        "neighborhood": [
            "新生里"
        ],
        "phone": "0972-295622",
        "location": {
            "lat": 25.0615226,
            "lng": 121.5308901
        },
        "power": 1
    },
    {
        "name": "新生里固定里民活動場所",
        "address": "新生北路2段133巷45號1樓",
        "neighborhood": [
            "新生里"
        ],
        "phone": "25114752",
        "location": {
            "lat": 25.0608881,
            "lng": 121.5292134
        },
        "power": 1
    },
    {
        "name": "新生幼稚園",
        "address": "新生北路2段125號",
        "neighborhood": [
            "中庄里"
        ],
        "phone": "25414534",
        "location": {
            "lat": 25.0596083,
            "lng": 121.5279165
        },
        "power": 1
    },
    {
        "name": "福德宮",
        "address": "吉林路236巷33號",
        "neighborhood": [
            "中庄里"
        ],
        "phone": "0972-295622",
        "location": {
            "lat": 25.059493,
            "lng": 121.5290635
        },
        "power": 1
    },
    {
        "name": "松江市場旁車庫",
        "address": "錦州街222號",
        "neighborhood": [
            "中庄里"
        ],
        "phone": "25114752",
        "location": {
            "lat": 25.0601175,
            "lng": 121.5321816
        },
        "power": 1
    },
    {
        "name": "正強汽車公司",
        "address": "濱江街182號",
        "neighborhood": [
            "大佳里"
        ],
        "phone": "25038212",
        "location": {
            "lat": 25.072298,
            "lng": 121.538622
        },
        "power": 1
    },
    {
        "name": "永裕鋼鐵大樓1樓",
        "address": "農安街200號",
        "neighborhood": [
            "行政里"
        ],
        "phone": "25174855",
        "location": {
            "lat": 25.0645362,
            "lng": 121.5358008
        },
        "power": 1
    },
    {
        "name": "行政里固定里民活動場所",
        "address": "民權東路2段135巷20弄7號",
        "neighborhood": [
            "行政里"
        ],
        "phone": "25174855",
        "location": {
            "lat": 25.0638919,
            "lng": 121.5346146
        },
        "power": 1
    },
    {
        "name": "行天宮附設玄空圖書館松江分館",
        "address": "松江路359號",
        "neighborhood": [
            "行政里"
        ],
        "phone": "25174855",
        "location": {
            "lat": 25.063547,
            "lng": 121.533543
        },
        "power": 1
    },
    {
        "name": "五常國小",
        "address": "五常街16號",
        "neighborhood": [
            "行仁里",
            "行孝里"
        ],
        "phone": "25023416",
        "location": {
            "lat": 25.0641393,
            "lng": 121.5422023
        },
        "power": 8
    },
    {
        "name": "五常國中",
        "address": "復興北路430巷1號",
        "neighborhood": [
            "下埤里",
            "江寧里"
        ],
        "phone": "25014320",
        "location": {
            "lat": 25.0634822,
            "lng": 121.5430996
        },
        "power": 6
    },
    {
        "name": "松花區民活動中心",
        "address": "合江街137號4樓",
        "neighborhood": [
            "江寧里"
        ],
        "phone": "0972-295628",
        "location": {
            "lat": 25.0616114,
            "lng": 121.539347
        },
        "power": 2
    },
    {
        "name": "臺北大學",
        "address": "民生東路3段67號",
        "neighborhood": [
            "江山里"
        ],
        "phone": "25024654#18256",
        "location": {
            "lat": 25.0580395,
            "lng": 121.5423856
        },
        "power": 4
    },
    {
        "name": "吉林國小",
        "address": "長春路116號",
        "neighborhood": [
            "中吉里",
            "中原里"
        ],
        "phone": "25219196",
        "location": {
            "lat": 25.054721,
            "lng": 121.5296301
        },
        "power": 6
    },
    {
        "name": "興亞區民活動中心",
        "address": "松江路26巷18號",
        "neighborhood": [
            "興亞里"
        ],
        "phone": "0972-295632",
        "location": {
            "lat": 25.0469519,
            "lng": 121.5320051
        },
        "power": 1
    },
    {
        "name": "長安國中",
        "address": "松江路70巷11號",
        "neighborhood": [
            "興亞里"
        ],
        "phone": "25112382",
        "location": {
            "lat": 25.0493929,
            "lng": 121.5318545
        },
        "power": 1
    },
    {
        "name": "長安國小",
        "address": "吉林路15號",
        "neighborhood": [
            "興亞里"
        ],
        "phone": "25617600",
        "location": {
            "lat": 25.0497694,
            "lng": 121.5301634
        },
        "power": 1
    },
    {
        "name": "長春國小",
        "address": "長春路165號",
        "neighborhood": [
            "中央里",
            "朱馥里"
        ],
        "phone": "25024366",
        "location": {
            "lat": 25.0549363,
            "lng": 121.5339007
        },
        "power": 5
    },
    {
        "name": "興安社區南區警衛室",
        "address": "復興北路190巷25號",
        "neighborhood": [
            "龍洲里"
        ],
        "phone": "25046287",
        "location": {
            "lat": 25.055679,
            "lng": 121.542584
        },
        "power": 1
    },
    {
        "name": "龍洲里固定里民活動場所",
        "address": "興安街61號",
        "neighborhood": [
            "龍洲里"
        ],
        "phone": "25172138",
        "location": {
            "lat": 25.0562445,
            "lng": 121.5425052
        },
        "power": 1
    },
    {
        "name": "興安華城北區管理委員會",
        "address": "民生東路3段88巷2號",
        "neighborhood": [
            "龍洲里"
        ],
        "phone": "25061266",
        "location": {
            "lat": 25.057396,
            "lng": 121.542902
        },
        "power": 1
    },
    {
        "name": "禾琚建設1樓",
        "address": "建國北路1段150號",
        "neighborhood": [
            "朱園里"
        ],
        "phone": "25172777",
        "location": {
            "lat": 25.0514322,
            "lng": 121.5361251
        },
        "power": 1
    },
    {
        "name": "五福財神爺廟旁",
        "address": "建國北路1段50巷31號對面(伊通街口)",
        "neighborhood": [
            "朱園里"
        ],
        "phone": "27711931",
        "location": {
            "lat": 25.0479,
            "lng": 121.5359638
        },
        "power": 1
    },
    {
        "name": "台北啤酒工場",
        "address": "八德路2段85號",
        "neighborhood": [
            "朱園里"
        ],
        "phone": "27711931",
        "location": {
            "lat": 25.0459175,
            "lng": 121.5357123
        },
        "power": 1
    },
    {
        "name": "懷生國小",
        "address": "安東街16巷2號",
        "neighborhood": [
            "埤頭里"
        ],
        "phone": "27710846#510",
        "location": {
            "lat": 25.0452404,
            "lng": 121.5417844
        },
        "power": 2
    },
    {
        "name": "朱崙區民活動中心",
        "address": "龍江路15號3樓",
        "neighborhood": [
            "朱崙里"
        ],
        "phone": "27815504",
        "location": {
            "lat": 25.0474355,
            "lng": 121.5404969
        },
        "power": 2
    },
    {
        "name": "中興中學",
        "address": "朱崙街42號",
        "neighborhood": [
            "力行里"
        ],
        "phone": "27412335",
        "location": {
            "lat": 25.0499125,
            "lng": 121.541912
        },
        "power": 1
    },
    {
        "name": "中正國小",
        "address": "龍江路62號",
        "neighborhood": [
            "力行里"
        ],
        "phone": "25070932#105",
        "location": {
            "lat": 25.0506494,
            "lng": 121.5402675
        },
        "power": 2
    },
    {
        "name": "生命堂",
        "address": "龍江路135號",
        "neighborhood": [
            "復華里"
        ],
        "phone": "27136928",
        "location": {
            "lat": 25.053524,
            "lng": 121.540699
        },
        "power": 1
    },
    {
        "name": "如意新村",
        "address": "南京東路3段89巷5弄1號",
        "neighborhood": [
            "復華里"
        ],
        "phone": "0936-731386",
        "location": {
            "lat": 25.0529073,
            "lng": 121.539132
        },
        "power": 1
    },
    {
        "name": "育航幼兒園",
        "address": "長春路256號",
        "neighborhood": [
            "復華里"
        ],
        "phone": "25178372",
        "location": {
            "lat": 25.054631,
            "lng": 121.538747
        },
        "power": 1
    }
]