[
    {
        "name": "臺北市士林公民會館",
        "address": "大東路75號",
        "neighborhood": [
            "仁勇里"
        ],
        "phone": "0972295800",
        "location": {
            "lat": 25.090478,
            "lng": 121.5254509
        },
        "power": 2
    },
    {
        "name": "慈諴宮東廂前廣場",
        "address": "大南路84號",
        "neighborhood": [
            "義信里"
        ],
        "phone": "28802972",
        "location": {
            "lat": 25.0894903,
            "lng": 121.5246627
        },
        "power": 1
    },
    {
        "name": "百齡高中703教室",
        "address": "承德路4段177號",
        "neighborhood": [
            "義信里"
        ],
        "phone": "28831568轉301",
        "location": {
            "lat": 25.0870504,
            "lng": 121.5229913
        },
        "power": 1
    },
    {
        "name": "泰北高中松鐸樓綜一乙班教室",
        "address": "福林路240號",
        "neighborhood": [
            "福林里"
        ],
        "phone": "28825560轉514",
        "location": {
            "lat": 25.0973651,
            "lng": 121.5339431
        },
        "power": 1
    },
    {
        "name": "福林區民活動中心",
        "address": "中正路187巷26號",
        "neighborhood": [
            "福林里"
        ],
        "phone": "0972295802",
        "location": {
            "lat": 25.0947156,
            "lng": 121.5273827
        },
        "power": 2
    },
    {
        "name": "士林國中七年",
        "address": "中正路345號",
        "neighborhood": [
            "福德里"
        ],
        "phone": "88613411轉520",
        "location": {
            "lat": 25.0943655,
            "lng": 121.5225702
        },
        "power": 4
    },
    {
        "name": "福林國小",
        "address": "福志路75號",
        "neighborhood": [
            "福志里"
        ],
        "phone": "28313430",
        "location": {
            "lat": 25.0986884,
            "lng": 121.5295965
        },
        "power": 4
    },
    {
        "name": "神農宮",
        "address": "前街74號",
        "neighborhood": [
            "舊佳里"
        ],
        "phone": "28324955",
        "location": {
            "lat": 25.0978071,
            "lng": 121.5263809
        },
        "power": 2
    },
    {
        "name": "舊佳區民活動中心",
        "address": "中山北路5段773之1號",
        "neighborhood": [
            "舊佳里"
        ],
        "phone": "0935948090",
        "location": {
            "lat": 25.0994658,
            "lng": 121.5266145
        },
        "power": 1
    },
    {
        "name": "基督教士林浸信會",
        "address": "中山北路5段751巷9號",
        "neighborhood": [
            "舊佳里"
        ],
        "phone": "28315719",
        "location": {
            "lat": 25.0987609,
            "lng": 121.5264933
        },
        "power": 1
    },
    {
        "name": "士林天主堂",
        "address": "（從文林路455號進入）",
        "neighborhood": [
            "福佳里"
        ],
        "phone": "28324270",
        "location": {
            "lat": 25.0465658,
            "lng": 121.5488669
        },
        "power": 1
    },
    {
        "name": "財政部臺北國稅局士林稽徵所",
        "address": "美崙街43號",
        "neighborhood": [
            "福佳里"
        ],
        "phone": "28315171",
        "location": {
            "lat": 25.0970697,
            "lng": 121.5226405
        },
        "power": 1
    },
    {
        "name": "臺北市立天文科學教育館",
        "address": "基河路363號",
        "neighborhood": [
            "福佳里"
        ],
        "phone": "0972295806",
        "location": {
            "lat": 25.0958292,
            "lng": 121.5182994
        },
        "power": 1
    },
    {
        "name": "文昌區民活動中心",
        "address": "文昌路166之1號",
        "neighborhood": [
            "福佳里"
        ],
        "phone": "28315171",
        "location": {
            "lat": 25.0981705,
            "lng": 121.5204937
        },
        "power": 1
    },
    {
        "name": "陽明高中",
        "address": "中正路510號",
        "neighborhood": [
            "後港里"
        ],
        "phone": "28316675",
        "location": {
            "lat": 25.0918395,
            "lng": 121.5171309
        },
        "power": 5
    },
    {
        "name": "百齡國小",
        "address": "福港街205號",
        "neighborhood": [
            "福中里",
            "前港里",
            "百齡里"
        ],
        "phone": "28817683",
        "location": {
            "lat": 25.0862066,
            "lng": 121.5178502
        },
        "power": 11
    },
    {
        "name": "劍潭國小",
        "address": "通河街16號",
        "neighborhood": [
            "承德里",
            "福華里",
            "明勝里"
        ],
        "phone": "28862471",
        "location": {
            "lat": 25.0799466,
            "lng": 121.5229841
        },
        "power": 8
    },
    {
        "name": "士林托兒所",
        "address": "通河街179巷2號",
        "neighborhood": [
            "福華里"
        ],
        "phone": "28853842",
        "location": {
            "lat": 25.0818488,
            "lng": 121.5195898
        },
        "power": 2
    },
    {
        "name": "慈信宮",
        "address": "重慶北路4段49巷40弄56號",
        "neighborhood": [
            "福順里"
        ],
        "phone": "28121379",
        "location": {
            "lat": 25.080014,
            "lng": 121.5117657
        },
        "power": 1
    },
    {
        "name": "葫蘆幼兒園",
        "address": "延平北路5段136巷1號",
        "neighborhood": [
            "福順里"
        ],
        "phone": "28151220",
        "location": {
            "lat": 25.0822223,
            "lng": 121.5108992
        },
        "power": 1
    },
    {
        "name": "臺北市立圖書館葫蘆堵分館",
        "address": "延平北路5段136巷1號1樓梯廳",
        "neighborhood": [
            "福順里"
        ],
        "phone": "28126513",
        "location": {
            "lat": 25.0822223,
            "lng": 121.5108992
        },
        "power": 1
    },
    {
        "name": "海光幼稚園",
        "address": "葫蘆街30巷25號",
        "neighborhood": [
            "富光里"
        ],
        "phone": "28111994",
        "location": {
            "lat": 25.0814429,
            "lng": 121.5098909
        },
        "power": 1
    },
    {
        "name": "海光宮辦公室",
        "address": "葫蘆街87號",
        "neighborhood": [
            "富光里"
        ],
        "phone": "28127626",
        "location": {
            "lat": 25.0805763,
            "lng": 121.5087561
        },
        "power": 1
    },
    {
        "name": "慈音聖寶宮",
        "address": "延平北路5段163巷39號",
        "neighborhood": [
            "富光里"
        ],
        "phone": "28111557",
        "location": {
            "lat": 25.0826244,
            "lng": 121.508689
        },
        "power": 1
    },
    {
        "name": "葫蘆國小1",
        "address": "環河北路3段95號",
        "neighborhood": [
            "葫蘆里"
        ],
        "phone": "28129586",
        "location": {
            "lat": 25.0837421,
            "lng": 121.5069631
        },
        "power": 4
    },
    {
        "name": "陽信銀行社子分行",
        "address": "延平北路5段260號",
        "neighborhood": [
            "葫東里"
        ],
        "phone": "28121112",
        "location": {
            "lat": 25.0849119,
            "lng": 121.5099453
        },
        "power": 1
    },
    {
        "name": "葫東區民活動中心",
        "address": "中正路589號",
        "neighborhood": [
            "葫東里"
        ],
        "phone": "28826200轉6014",
        "location": {
            "lat": 25.086613,
            "lng": 121.5099166
        },
        "power": 1
    },
    {
        "name": "社子里里民活動場所",
        "address": "社中街70號",
        "neighborhood": [
            "社子里"
        ],
        "phone": "28111133",
        "location": {
            "lat": 25.0883877,
            "lng": 121.5106596
        },
        "power": 1
    },
    {
        "name": "社子里里民活動場所對面",
        "address": "社中街53號",
        "neighborhood": [
            "社子里"
        ],
        "phone": "28111133",
        "location": {
            "lat": 25.0885424,
            "lng": 121.5105357
        },
        "power": 1
    },
    {
        "name": "社福宮活動中心",
        "address": "社中街210巷31號",
        "neighborhood": [
            "社子里"
        ],
        "phone": "28150700",
        "location": {
            "lat": 25.0879265,
            "lng": 121.5098462
        },
        "power": 2
    },
    {
        "name": "永新區民活動中心",
        "address": "中正路632-1號",
        "neighborhood": [
            "社新里"
        ],
        "phone": "28826200轉6014",
        "location": {
            "lat": 25.086754,
            "lng": 121.508376
        },
        "power": 1
    },
    {
        "name": "共和宮",
        "address": "社子街117號",
        "neighborhood": [
            "社新里"
        ],
        "phone": "28124828",
        "location": {
            "lat": 25.0882206,
            "lng": 121.5052961
        },
        "power": 1
    },
    {
        "name": "社子國小一年",
        "address": "延平北路6段308號",
        "neighborhood": [
            "社新里",
            "永倫里"
        ],
        "phone": "28129059",
        "location": {
            "lat": 25.0898123,
            "lng": 121.5029481
        },
        "power": 7
    },
    {
        "name": "慈暉幼兒園",
        "address": "永平街46巷3弄9號",
        "neighborhood": [
            "社園里"
        ],
        "phone": "28113589",
        "location": {
            "lat": 25.0910551,
            "lng": 121.5058989
        },
        "power": 1
    },
    {
        "name": "社子公園1樓閱覽室",
        "address": "永平街20巷37弄17號",
        "neighborhood": [
            "社園里"
        ],
        "phone": "28112371",
        "location": {
            "lat": 25.0901528,
            "lng": 121.5058251
        },
        "power": 1
    },
    {
        "name": "社子公園松柏健身隊康樂室",
        "address": "永平街20巷37弄10號對面社子公園內",
        "neighborhood": [
            "社園里"
        ],
        "phone": "28117368",
        "location": {
            "lat": 25.0905219,
            "lng": 121.5067675
        },
        "power": 1
    },
    {
        "name": "陽信銀行社中分行",
        "address": "社中街220號",
        "neighborhood": [
            "社園里"
        ],
        "phone": "28151415",
        "location": {
            "lat": 25.0912726,
            "lng": 121.5082995
        },
        "power": 1
    },
    {
        "name": "福安國中",
        "address": "延平北路7段250號",
        "neighborhood": [
            "福安里"
        ],
        "phone": "28108766轉140",
        "location": {
            "lat": 25.1028546,
            "lng": 121.4880705
        },
        "power": 3
    },
    {
        "name": "富安國小",
        "address": "延平北路8段135號",
        "neighborhood": [
            "富洲里"
        ],
        "phone": "28103192",
        "location": {
            "lat": 25.1058687,
            "lng": 121.4824416
        },
        "power": 2
    },
    {
        "name": "中洲區民活動中心",
        "address": "延平北路9段80號",
        "neighborhood": [
            "富洲里"
        ],
        "phone": "0972295823",
        "location": {
            "lat": 25.106337,
            "lng": 121.474814
        },
        "power": 1
    },
    {
        "name": "雨聲國小",
        "address": "至誠路1段62巷70號",
        "neighborhood": [
            "岩山里"
        ],
        "phone": "28311004",
        "location": {
            "lat": 25.1026617,
            "lng": 121.5352647
        },
        "power": 2
    },
    {
        "name": "芝山岩區民活動中心",
        "address": "雨聲街68號",
        "neighborhood": [
            "名山里"
        ],
        "phone": "0972295825",
        "location": {
            "lat": 25.1024648,
            "lng": 121.5270178
        },
        "power": 1
    },
    {
        "name": "雨農國小",
        "address": "忠義街1號",
        "neighborhood": [
            "名山里",
            "聖山里",
            "忠誠里"
        ],
        "phone": "28329700轉117",
        "location": {
            "lat": 25.1052602,
            "lng": 121.5298543
        },
        "power": 9
    },
    {
        "name": "泰安幼兒園",
        "address": "中山北路5段829巷14號",
        "neighborhood": [
            "德行里"
        ],
        "phone": "28314281",
        "location": {
            "lat": 25.1017501,
            "lng": 121.525121
        },
        "power": 1
    },
    {
        "name": "仰德區民活動中心",
        "address": "德行西路30號",
        "neighborhood": [
            "德行里"
        ],
        "phone": "28826200-6013",
        "location": {
            "lat": 25.1046581,
            "lng": 121.5219827
        },
        "power": 2
    },
    {
        "name": "文昌國小多功能教室",
        "address": "文林路615巷20號",
        "neighborhood": [
            "德華里"
        ],
        "phone": "28365411",
        "location": {
            "lat": 25.0994098,
            "lng": 121.5212957
        },
        "power": 2
    },
    {
        "name": "德華區民活動中心",
        "address": "文昌路211-1號",
        "neighborhood": [
            "德華里"
        ],
        "phone": "0972295827",
        "location": {
            "lat": 25.0999691,
            "lng": 121.5199966
        },
        "power": 1
    },
    {
        "name": "芝山國小",
        "address": "德行東路285號",
        "neighborhood": [
            "芝山里"
        ],
        "phone": "28316115轉240",
        "location": {
            "lat": 25.1102489,
            "lng": 121.5364388
        },
        "power": 4
    },
    {
        "name": "臺北市職能發展學院",
        "address": "士東路301號",
        "neighborhood": [
            "東山里"
        ],
        "phone": "28721940轉258",
        "location": {
            "lat": 25.11374,
            "lng": 121.537773
        },
        "power": 3
    },
    {
        "name": "蘭雅國中九年",
        "address": "三玉里忠誠路2段51號",
        "neighborhood": [
            "三玉里"
        ],
        "phone": "28329377轉500",
        "location": {
            "lat": 25.110619,
            "lng": 121.5308927
        },
        "power": 3
    },
    {
        "name": "士東國小",
        "address": "中山北路6段392號",
        "neighborhood": [
            "蘭雅里",
            "天祿里",
            "天壽里"
        ],
        "phone": "28710064轉241",
        "location": {
            "lat": 25.1129301,
            "lng": 121.526828
        },
        "power": 7
    },
    {
        "name": "蘭雅國小",
        "address": "磺溪街57號",
        "neighborhood": [
            "蘭雅里",
            "蘭興里"
        ],
        "phone": "28366052轉208",
        "location": {
            "lat": 25.1084096,
            "lng": 121.5231371
        },
        "power": 6
    },
    {
        "name": "臺北市立大學天母校區體育館選手休息室（",
        "address": "忠誠路2段101號",
        "neighborhood": [
            "天福里"
        ],
        "phone": "28718288",
        "location": {
            "lat": 25.1162535,
            "lng": 121.5360478
        },
        "power": 4
    },
    {
        "name": "台北美國學校西校區",
        "address": "中山北路6段765號",
        "neighborhood": [
            "天壽里"
        ],
        "phone": "28739900轉347",
        "location": {
            "lat": 25.116095,
            "lng": 121.528014
        },
        "power": 1
    },
    {
        "name": "天母國小",
        "address": "天玉街12號",
        "neighborhood": [
            "天壽里",
            "天山里",
            "天玉里"
        ],
        "phone": "28723336轉9503",
        "location": {
            "lat": 25.1197914,
            "lng": 121.5275331
        },
        "power": 10
    },
    {
        "name": "天母國中八年",
        "address": "天母東路120號",
        "neighborhood": [
            "天和里"
        ],
        "phone": "28754864轉275",
        "location": {
            "lat": 25.118011,
            "lng": 121.5381651
        },
        "power": 4
    },
    {
        "name": "天母天主堂活動中心",
        "address": "士林中山北路7段171號",
        "neighborhood": [
            "天母里"
        ],
        "phone": "28715168",
        "location": {
            "lat": 25.1187621,
            "lng": 121.5314704
        },
        "power": 1
    },
    {
        "name": "基督教天母禮拜堂",
        "address": "中山北路7段216巷1號",
        "neighborhood": [
            "天母里"
        ],
        "phone": "28711622",
        "location": {
            "lat": 25.1258639,
            "lng": 121.533149
        },
        "power": 1
    },
    {
        "name": "天母基督教會",
        "address": "天玉街63號",
        "neighborhood": [
            "天母里"
        ],
        "phone": "28714834",
        "location": {
            "lat": 25.1220151,
            "lng": 121.5307058
        },
        "power": 1
    },
    {
        "name": "道爾敦幼兒園",
        "address": "中山北路7段224巷3號",
        "neighborhood": [
            "天母里"
        ],
        "phone": "28730225",
        "location": {
            "lat": 25.126981,
            "lng": 121.533307
        },
        "power": 1
    },
    {
        "name": "永福區民活動中心",
        "address": "仰德大道2段146號",
        "neighborhood": [
            "永福里"
        ],
        "phone": "0972295842",
        "location": {
            "lat": 25.109777,
            "lng": 121.547819
        },
        "power": 1
    },
    {
        "name": "公館里里民聚會所",
        "address": "永公路245巷19號旁",
        "neighborhood": [
            "公館里"
        ],
        "phone": "0972295843",
        "location": {
            "lat": 25.1228563,
            "lng": 121.5583935
        },
        "power": 1
    },
    {
        "name": "陽明山國小",
        "address": "仰德大道3段61號",
        "neighborhood": [
            "新安里"
        ],
        "phone": "28616366",
        "location": {
            "lat": 25.1193324,
            "lng": 121.5528168
        },
        "power": 2
    },
    {
        "name": "臺北市立聯合醫院草山職能工作坊",
        "address": "建業路7號",
        "neighborhood": [
            "陽明里"
        ],
        "phone": "28622470",
        "location": {
            "lat": 25.1354244,
            "lng": 121.5474866
        },
        "power": 1
    },
    {
        "name": "陽明區民活動中心",
        "address": "菁山路34巷1號",
        "neighborhood": [
            "陽明里"
        ],
        "phone": "28618717",
        "location": {
            "lat": 25.1380645,
            "lng": 121.5473046
        },
        "power": 1
    },
    {
        "name": "基督教臺灣信義會陽明山錫安堂",
        "address": "陽明路1段34號",
        "neighborhood": [
            "陽明里"
        ],
        "phone": "28612140",
        "location": {
            "lat": 25.149465,
            "lng": 121.549723
        },
        "power": 1
    },
    {
        "name": "原菁山區民活動中心",
        "address": "永公路520號",
        "neighborhood": [
            "菁山里"
        ],
        "phone": "28610678",
        "location": {
            "lat": 25.1386118,
            "lng": 121.5670436
        },
        "power": 1
    },
    {
        "name": "中華電信國際電信分公司",
        "address": "菁山路127之15號",
        "neighborhood": [
            "菁山里"
        ],
        "phone": "28620070",
        "location": {
            "lat": 25.1449297,
            "lng": 121.5647418
        },
        "power": 1
    },
    {
        "name": "平等國小四年級教室",
        "address": "平菁街101號",
        "neighborhood": [
            "平等里"
        ],
        "phone": "28610503",
        "location": {
            "lat": 25.1291056,
            "lng": 121.5765107
        },
        "power": 1
    },
    {
        "name": "溪山里里民活動場所",
        "address": "至善路3段258號旁",
        "neighborhood": [
            "溪山里"
        ],
        "phone": "28411119",
        "location": {
            "lat": 25.1193252,
            "lng": 121.5827007
        },
        "power": 1
    },
    {
        "name": "雙溪國小",
        "address": "中社路2段66號",
        "neighborhood": [
            "翠山里"
        ],
        "phone": "28411038",
        "location": {
            "lat": 25.1060693,
            "lng": 121.5638863
        },
        "power": 1
    },
    {
        "name": "雙溪中央社區發展協會",
        "address": "中社路1段36巷2-1號",
        "neighborhood": [
            "翠山里"
        ],
        "phone": "28412197",
        "location": {
            "lat": 25.109063,
            "lng": 121.559858
        },
        "power": 1
    },
    {
        "name": "臨溪區民活動中心（衛理女中對面）",
        "address": "至善路2段286號",
        "neighborhood": [
            "臨溪里"
        ],
        "phone": "28819429",
        "location": {
            "lat": 25.1010367,
            "lng": 121.5519982
        },
        "power": 1
    },
    {
        "name": "至善國中夜自習教室",
        "address": "至善路2段360號",
        "neighborhood": [
            "臨溪里"
        ],
        "phone": "28414350",
        "location": {
            "lat": 25.1035869,
            "lng": 121.5554252
        },
        "power": 1
    }
]