[
    {
        "name": "民權區民活動中心禮堂",
        "address": "民權東路5段臨43號(民權大橋下)",
        "neighborhood": [
            "莊敬里",
            "新益里"
        ],
        "phone": "87878787轉829",
        "location": {
            "lat": 25.0631239,
            "lng": 121.5659216
        },
        "power": 2
    },
    {
        "name": "三民國小附設幼兒園-",
        "address": "民權東路5段1號",
        "neighborhood": [
            "莊敬里"
        ],
        "phone": "27646080轉231",
        "location": {
            "lat": 25.0631782,
            "lng": 121.5642857
        },
        "power": 2
    },
    {
        "name": "基督教新生教團台北民生教會",
        "address": "新中街10巷2號",
        "neighborhood": [
            "東榮里"
        ],
        "phone": "27682905",
        "location": {
            "lat": 25.0596658,
            "lng": 121.5606001
        },
        "power": 1
    },
    {
        "name": "民權國小",
        "address": "民權東路4段200號",
        "neighborhood": [
            "東榮里",
            "三民里",
            "富錦里"
        ],
        "phone": "27652327轉33",
        "location": {
            "lat": 25.0625251,
            "lng": 121.562292
        },
        "power": 6
    },
    {
        "name": "二村基石中心",
        "address": "民生東路5段69巷2弄10號",
        "neighborhood": [
            "東榮里"
        ],
        "phone": "276383040912578940",
        "location": {
            "lat": 25.059083,
            "lng": 121.558734
        },
        "power": 1
    },
    {
        "name": "聯合二村教會",
        "address": "民生東路5段69巷2弄12號",
        "neighborhood": [
            "東榮里"
        ],
        "phone": "276383040912578940",
        "location": {
            "lat": 25.059087,
            "lng": 121.558799
        },
        "power": 1
    },
    {
        "name": "健康國小",
        "address": "延壽街168號",
        "neighborhood": [
            "三民里",
            "富泰里",
            "自強里"
        ],
        "phone": "25282814轉136",
        "location": {
            "lat": 25.0566674,
            "lng": 121.5627846
        },
        "power": 4
    },
    {
        "name": "臺北市立圖書館三民分館視廳室",
        "address": "民生東路5段163之1號6樓",
        "neighborhood": [
            "三民里"
        ],
        "phone": "27600408轉16",
        "location": {
            "lat": 25.059274,
            "lng": 121.562837
        },
        "power": 1
    },
    {
        "name": "民生國中",
        "address": "新東街30巷1號",
        "neighborhood": [
            "新益里",
            "新東里"
        ],
        "phone": "27653433轉300",
        "location": {
            "lat": 25.0598048,
            "lng": 121.5667367
        },
        "power": 5
    },
    {
        "name": "海華大廈休閒中心",
        "address": "民生東路5段171號地下1樓",
        "neighborhood": [
            "富錦里"
        ],
        "phone": "27661804",
        "location": {
            "lat": 25.0592657,
            "lng": 121.5647559
        },
        "power": 1
    },
    {
        "name": "民生社區中心8樓三民區民活動中心",
        "address": "民生東路5段163之1號8樓",
        "neighborhood": [
            "富泰里"
        ],
        "phone": "87878787轉829",
        "location": {
            "lat": 25.059274,
            "lng": 121.562837
        },
        "power": 1
    },
    {
        "name": "民生社區中心4樓集會堂川堂",
        "address": "民生東路5段163之1號4樓",
        "neighborhood": [
            "富泰里"
        ],
        "phone": "27666959",
        "location": {
            "lat": 25.059274,
            "lng": 121.562837
        },
        "power": 1
    },
    {
        "name": "介壽國中71",
        "address": "延壽街401號",
        "neighborhood": [
            "介壽里"
        ],
        "phone": "27674496轉510",
        "location": {
            "lat": 25.0564119,
            "lng": 121.5564366
        },
        "power": 3
    },
    {
        "name": "民族國小",
        "address": "民生東路4段97巷7號",
        "neighborhood": [
            "精忠里"
        ],
        "phone": "27124872",
        "location": {
            "lat": 25.0594726,
            "lng": 121.5518154
        },
        "power": 3
    },
    {
        "name": "西松國小",
        "address": "三民路5號(由南京東路5段147巷側門進入)",
        "neighborhood": [
            "東光里"
        ],
        "phone": "27609221",
        "location": {
            "lat": 25.0522116,
            "lng": 121.5636714
        },
        "power": 4
    },
    {
        "name": "平安新村甲區管理委員會",
        "address": "延壽街348號1樓",
        "neighborhood": [
            "龍田里"
        ],
        "phone": "27655730",
        "location": {
            "lat": 25.0563737,
            "lng": 121.5593137
        },
        "power": 1
    },
    {
        "name": "介壽國中70",
        "address": "延壽街401號1樓",
        "neighborhood": [
            "龍田里"
        ],
        "phone": "27674496轉500",
        "location": {
            "lat": 25.0564119,
            "lng": 121.5564366
        },
        "power": 2
    },
    {
        "name": "民生國小",
        "address": "敦化北路199巷18號1樓",
        "neighborhood": [
            "龍田里",
            "中華里"
        ],
        "phone": "27122452轉830",
        "location": {
            "lat": 25.0565153,
            "lng": 121.5521795
        },
        "power": 4
    },
    {
        "name": "東昌里民活動場所",
        "address": "民生東路4段112巷7弄24號",
        "neighborhood": [
            "東昌里"
        ],
        "phone": "0919395565",
        "location": {
            "lat": 25.0565696,
            "lng": 121.5552676
        },
        "power": 1
    },
    {
        "name": "車庫",
        "address": "民生東路4段112巷3弄3號",
        "neighborhood": [
            "東昌里"
        ],
        "phone": "0919395565",
        "location": {
            "lat": 25.05747,
            "lng": 121.554621
        },
        "power": 1
    },
    {
        "name": "漢家幼兒園",
        "address": "南京東路4段133巷6弄2號1樓",
        "neighborhood": [
            "東勢里"
        ],
        "phone": "27131091",
        "location": {
            "lat": 25.0527353,
            "lng": 121.554998
        },
        "power": 1
    },
    {
        "name": "歐先生宅",
        "address": "南京東路4段133巷7弄11號1樓",
        "neighborhood": [
            "東勢里"
        ],
        "phone": "27172185",
        "location": {
            "lat": 25.052546,
            "lng": 121.555548
        },
        "power": 1
    },
    {
        "name": "金陵教會",
        "address": "南京東路4段133巷6弄20號1樓",
        "neighborhood": [
            "東勢里"
        ],
        "phone": "0926068727",
        "location": {
            "lat": 25.052843,
            "lng": 121.5544277
        },
        "power": 1
    },
    {
        "name": "臺北浸信會頌恩堂",
        "address": "敦化北路145巷30號1樓",
        "neighborhood": [
            "中華里"
        ],
        "phone": "87122215",
        "location": {
            "lat": 25.0539282,
            "lng": 121.5519659
        },
        "power": 1
    },
    {
        "name": "賀瑞幼兒園",
        "address": "南京東路4段53巷11弄1號",
        "neighborhood": [
            "中華里"
        ],
        "phone": "27127575",
        "location": {
            "lat": 25.0532687,
            "lng": 121.5510195
        },
        "power": 1
    },
    {
        "name": "臺北市立圖書館啟明分館1樓",
        "address": "敦化北路155巷76號1樓",
        "neighborhood": [
            "中華里"
        ],
        "phone": "2514-8443",
        "location": {
            "lat": 25.0543394,
            "lng": 121.551794
        },
        "power": 1
    },
    {
        "name": "思高幼兒園思高中心",
        "address": "民生東路3段125號",
        "neighborhood": [
            "民有里"
        ],
        "phone": "27133897",
        "location": {
            "lat": 25.05808,
            "lng": 121.547388
        },
        "power": 1
    },
    {
        "name": "中山國中",
        "address": "復興北路361巷7號",
        "neighborhood": [
            "民有里"
        ],
        "phone": "27126701轉501",
        "location": {
            "lat": 25.0606072,
            "lng": 121.5455306
        },
        "power": 4
    },
    {
        "name": "民福里民活動場所",
        "address": "民權東路3段103巷5弄5號1樓",
        "neighborhood": [
            "民福里"
        ],
        "phone": "0934332936",
        "location": {
            "lat": 25.0629166,
            "lng": 121.5452768
        },
        "power": 1
    },
    {
        "name": "民福社區服務中心",
        "address": "民權東路3段191巷34之1號1樓",
        "neighborhood": [
            "民福里"
        ],
        "phone": "0934332936",
        "location": {
            "lat": 25.063747,
            "lng": 121.54641
        },
        "power": 1
    },
    {
        "name": "上達汽車有限公司",
        "address": "民族東路687號1樓",
        "neighborhood": [
            "民福里"
        ],
        "phone": "87123456",
        "location": {
            "lat": 25.06351,
            "lng": 121.548291
        },
        "power": 1
    },
    {
        "name": "恩光教會",
        "address": "民權東路3段191巷74號1樓",
        "neighborhood": [
            "民福里"
        ],
        "phone": "0963266909",
        "location": {
            "lat": 25.0650639,
            "lng": 121.544996
        },
        "power": 1
    },
    {
        "name": "松基區民活動中心",
        "address": "長春路339巷2號地下1樓",
        "neighborhood": [
            "松基里"
        ],
        "phone": "87878787轉854",
        "location": {
            "lat": 25.0494643,
            "lng": 121.5563418
        },
        "power": 2
    },
    {
        "name": "松山國小游泳池入口",
        "address": "八德路4段746號",
        "neighborhood": [
            "慈祐里"
        ],
        "phone": "27672907轉601",
        "location": {
            "lat": 25.0504124,
            "lng": 121.5798423
        },
        "power": 1
    },
    {
        "name": "更新大樓中庭",
        "address": "八德路4段606號",
        "neighborhood": [
            "慈祐里"
        ],
        "phone": "0928283701",
        "location": {
            "lat": 25.0499328,
            "lng": 121.5745187
        },
        "power": 1
    },
    {
        "name": "松山長老教會1樓",
        "address": "饒河街105號",
        "neighborhood": [
            "慈祐里"
        ],
        "phone": "27684081",
        "location": {
            "lat": 25.050634,
            "lng": 121.5759243
        },
        "power": 1
    },
    {
        "name": "西松國小",
        "address": "三民路5號",
        "neighborhood": [
            "安平里"
        ],
        "phone": "27609221",
        "location": {
            "lat": 25.0522116,
            "lng": 121.5636714
        },
        "power": 1
    },
    {
        "name": "沐恩堂",
        "address": "南京東路5段251巷45號",
        "neighborhood": [
            "安平里"
        ],
        "phone": "27686926",
        "location": {
            "lat": 25.0538477,
            "lng": 121.5652531
        },
        "power": 1
    },
    {
        "name": "安平區民活動中心2樓",
        "address": "南京東路5段291巷44弄23之1號2樓",
        "neighborhood": [
            "安平里"
        ],
        "phone": "0935865368",
        "location": {
            "lat": 25.0534628,
            "lng": 121.565603
        },
        "power": 1
    },
    {
        "name": "恩友堂第",
        "address": "寶清街123號",
        "neighborhood": [
            "安平里"
        ],
        "phone": "27670760",
        "location": {
            "lat": 25.0541478,
            "lng": 121.5674872
        },
        "power": 2
    },
    {
        "name": "西松高中",
        "address": "健康路325巷7號",
        "neighborhood": [
            "鵬程里",
            "自強里"
        ],
        "phone": "25282295",
        "location": {
            "lat": 25.0555538,
            "lng": 121.567082
        },
        "power": 3
    },
    {
        "name": "鵬程區民活動中心",
        "address": "健康路399號3樓",
        "neighborhood": [
            "鵬程里"
        ],
        "phone": "87878787轉829",
        "location": {
            "lat": 25.0546665,
            "lng": 121.5688035
        },
        "power": 1
    },
    {
        "name": "自強區民活動中心",
        "address": "三民路35巷9號",
        "neighborhood": [
            "自強里"
        ],
        "phone": "87878787轉829",
        "location": {
            "lat": 25.055465,
            "lng": 121.5626246
        },
        "power": 1
    },
    {
        "name": "健安新城G區管委會辦公室",
        "address": "三民路80巷1號",
        "neighborhood": [
            "自強里"
        ],
        "phone": "25287735",
        "location": {
            "lat": 25.056578,
            "lng": 121.565156
        },
        "power": 1
    },
    {
        "name": "中崙高中2樓",
        "address": "八德路4段101號2樓",
        "neighborhood": [
            "吉祥里"
        ],
        "phone": "27535316轉400",
        "location": {
            "lat": 25.0487226,
            "lng": 121.5611946
        },
        "power": 5
    },
    {
        "name": "新聚區民活動中心",
        "address": "南京東路5段374號1樓",
        "neighborhood": [
            "新聚里"
        ],
        "phone": "87878787轉829",
        "location": {
            "lat": 25.0511311,
            "lng": 121.5694386
        },
        "power": 2
    },
    {
        "name": "9號車庫",
        "address": "南京東路5段250巷9之3號(揚登牙醫)旁停車場",
        "neighborhood": [
            "新聚里"
        ],
        "phone": "0910273876",
        "location": {
            "lat": 25.0507327,
            "lng": 121.5656822
        },
        "power": 1
    },
    {
        "name": "財團法人萬國道德總會",
        "address": "南京東路5段250巷18弄46號1樓",
        "neighborhood": [
            "新聚里"
        ],
        "phone": "0970126384",
        "location": {
            "lat": 25.0501581,
            "lng": 121.5682638
        },
        "power": 1
    },
    {
        "name": "復盛區民活動中心第",
        "address": "市民大道5段99之1號(八德路4段106巷內)",
        "neighborhood": [
            "復盛里"
        ],
        "phone": "87878787轉829",
        "location": {
            "lat": 25.0466248,
            "lng": 121.561205
        },
        "power": 3
    },
    {
        "name": "張先生宅",
        "address": "臺北市松山區八德路4段182號",
        "neighborhood": [
            "復盛里"
        ],
        "phone": "87878787轉846",
        "location": {
            "lat": 25.049801,
            "lng": 121.57719
        },
        "power": 1
    },
    {
        "name": "敦化國中70",
        "address": "南京東路3段300號1樓",
        "neighborhood": [
            "中正里"
        ],
        "phone": "87717890轉51",
        "location": {
            "lat": 25.0515711,
            "lng": 121.5467135
        },
        "power": 5
    },
    {
        "name": "張先生宅",
        "address": "八德路2段366巷17號",
        "neighborhood": [
            "中崙里"
        ],
        "phone": "27719791",
        "location": {
            "lat": 25.047309,
            "lng": 121.546117
        },
        "power": 1
    },
    {
        "name": "周先生宅",
        "address": "八德路2段366巷22號",
        "neighborhood": [
            "中崙里"
        ],
        "phone": "0933092641",
        "location": {
            "lat": 25.047384,
            "lng": 121.545911
        },
        "power": 1
    },
    {
        "name": "育達商職10",
        "address": "寧安街12號",
        "neighborhood": [
            "美仁里",
            "復勢里"
        ],
        "phone": "25706767轉402",
        "location": {
            "lat": 25.0499523,
            "lng": 121.5544578
        },
        "power": 3
    },
    {
        "name": "華南社區中庭",
        "address": "延吉街46巷8號旁",
        "neighborhood": [
            "吉仁里"
        ],
        "phone": "25787714.25792333",
        "location": {
            "lat": 25.0455545,
            "lng": 121.5531009
        },
        "power": 1
    },
    {
        "name": "華南社區中庭",
        "address": "延吉街46巷3號旁",
        "neighborhood": [
            "吉仁里"
        ],
        "phone": "25787714.25792333",
        "location": {
            "lat": 25.0452659,
            "lng": 121.5534668
        },
        "power": 1
    },
    {
        "name": "陳先生車庫",
        "address": "市民大道4段臨119號(八德路3段8巷底)",
        "neighborhood": [
            "敦化里"
        ],
        "phone": "25778430",
        "location": {
            "lat": 25.0452898,
            "lng": 121.5449292
        },
        "power": 1
    },
    {
        "name": "馨兒園幼兒園",
        "address": "八德路3段12巷60號",
        "neighborhood": [
            "敦化里"
        ],
        "phone": "25775928",
        "location": {
            "lat": 25.0458821,
            "lng": 121.5505774
        },
        "power": 1
    },
    {
        "name": "卡兒堡幼兒園",
        "address": "八德路12巷57弄39號",
        "neighborhood": [
            "敦化里"
        ],
        "phone": "25784555",
        "location": {
            "lat": 25.0485057,
            "lng": 121.5595167
        },
        "power": 1
    },
    {
        "name": "慈賢宮",
        "address": "八德路3段74巷14弄18號",
        "neighborhood": [
            "敦化里"
        ],
        "phone": "257840760910215841",
        "location": {
            "lat": 25.0476974,
            "lng": 121.5520398
        },
        "power": 1
    },
    {
        "name": "聖若瑟天主堂",
        "address": "八德路3段158巷22號1樓",
        "neighborhood": [
            "復源里"
        ],
        "phone": "25775286. 0932318680",
        "location": {
            "lat": 25.047792,
            "lng": 121.5549304
        },
        "power": 1
    },
    {
        "name": "美仁浸信會",
        "address": "八德路3段106巷106號1樓",
        "neighborhood": [
            "復源里"
        ],
        "phone": "25792065",
        "location": {
            "lat": 25.0449985,
            "lng": 121.5542399
        },
        "power": 1
    },
    {
        "name": "門諾會光復教會",
        "address": "光復南路46巷1之2號",
        "neighborhood": [
            "復建里"
        ],
        "phone": "25782238",
        "location": {
            "lat": 25.0462621,
            "lng": 121.5572159
        },
        "power": 1
    },
    {
        "name": "復建區民活動中心",
        "address": "八德路3段158巷7弄20號",
        "neighborhood": [
            "復建里"
        ],
        "phone": "25779061",
        "location": {
            "lat": 25.0473119,
            "lng": 121.5560236
        },
        "power": 1
    },
    {
        "name": "台北蒙恩堂",
        "address": "光復南路32巷3號",
        "neighborhood": [
            "復建里"
        ],
        "phone": "25700564",
        "location": {
            "lat": 25.0467016,
            "lng": 121.5570812
        },
        "power": 1
    },
    {
        "name": "育達大學臺北推廣教育中心H112多功能會議中心",
        "address": "南京東路4段120巷27號",
        "neighborhood": [
            "復勢里"
        ],
        "phone": "25706949轉1121",
        "location": {
            "lat": 25.0504343,
            "lng": 121.5551612
        },
        "power": 1
    },
    {
        "name": "法光寺",
        "address": "光復北路60巷20號",
        "neighborhood": [
            "復勢里"
        ],
        "phone": "25791940",
        "location": {
            "lat": 25.049964,
            "lng": 121.55694
        },
        "power": 1
    },
    {
        "name": "博仁社區健康中心",
        "address": "光復北路82號",
        "neighborhood": [
            "復勢里"
        ],
        "phone": "25786677轉2229",
        "location": {
            "lat": 25.0502157,
            "lng": 121.5576479
        },
        "power": 1
    },
    {
        "name": "中崙教會教育館",
        "address": "敦化南路1段80巷36號",
        "neighborhood": [
            "福成里"
        ],
        "phone": "27216181",
        "location": {
            "lat": 25.046568,
            "lng": 121.54713
        },
        "power": 1
    },
    {
        "name": "財團法人臺北市中崙福成宮",
        "address": "市民大道4段71號",
        "neighborhood": [
            "福成里"
        ],
        "phone": "27516796",
        "location": {
            "lat": 25.0453464,
            "lng": 121.5469414
        },
        "power": 1
    }
]