{
    "里": [
        {
            "name": "八賢里活動中心",
            "address": "八連溪４１號",
            "location": {
                "lat": 25.21453,
                "lng": 121.5392539
            }
        },
        {
            "name": "三芝國小(1年1班教室)",
            "address": "育英街２２號",
            "location": {
                "lat": 25.2581038,
                "lng": 121.5013799
            }
        },
        {
            "name": "三芝國小(1年3班)",
            "address": "育英街２２號",
            "location": {
                "lat": 25.2581038,
                "lng": 121.5013799
            }
        },
        {
            "name": "三芝國小(1年5班教室)",
            "address": "育英街２２號",
            "location": {
                "lat": 25.2581038,
                "lng": 121.5013799
            }
        },
        {
            "name": "福德宮活動中心",
            "address": "茂興店８７號",
            "location": {
                "lat": 25.265169,
                "lng": 121.486279
            }
        },
        {
            "name": "三和社區活動中心",
            "address": "蕃社后３之１號",
            "location": {
                "lat": 25.247556,
                "lng": 121.4720052
            }
        },
        {
            "name": "三芝國中(703教室)",
            "address": "淡金路一段３８號",
            "location": {
                "lat": 25.2592717,
                "lng": 121.5003161
            }
        },
        {
            "name": "三芝國中(資源教室A)",
            "address": "淡金路一段３８號",
            "location": {
                "lat": 25.2592717,
                "lng": 121.5003161
            }
        },
        {
            "name": "三芝國中(901教室)",
            "address": "淡金路一段３８號",
            "location": {
                "lat": 25.2592717,
                "lng": 121.5003161
            }
        },
        {
            "name": "三芝國中(902教室)",
            "address": "淡金路一段３８號",
            "location": {
                "lat": 25.2592717,
                "lng": 121.5003161
            }
        },
        {
            "name": "茂長里活動中心",
            "address": "陳厝坑６１之３號",
            "location": {
                "lat": 25.2519412,
                "lng": 121.5017987
            }
        },
        {
            "name": "橫山里活動中心",
            "address": "大坑８６之１號",
            "location": {
                "lat": 25.2206742,
                "lng": 121.5283961
            }
        },
        {
            "name": "錫板智成堂",
            "address": "海尾１７號",
            "location": {
                "lat": 25.247404,
                "lng": 121.490923
            }
        },
        {
            "name": "芝蘭老人文康活動中心",
            "address": "北勢子４１之１號",
            "location": {
                "lat": 25.2343177,
                "lng": 121.4755361
            }
        },
        {
            "name": "福德里活動中心",
            "address": "埔尾９之１號",
            "location": {
                "lat": 25.2587033,
                "lng": 121.4996959
            }
        },
        {
            "name": "圓山里活動中心",
            "address": "木屐寮３２之２號",
            "location": {
                "lat": 0,
                "lng": 0
            }
        },
        {
            "name": "三芝區農會北新庄辦事處集貨場",
            "address": "楓子林４９之２號",
            "location": {
                "lat": 25.220799,
                "lng": 121.5290826
            }
        },
        {
            "name": "興華國小風雨教室",
            "address": "田心子５號",
            "location": {
                "lat": 25.201225,
                "lng": 121.493698
            }
        }
    ],
    "賢": [
        {
            "name": "八賢里活動中心",
            "address": "八連溪４１號",
            "location": {
                "lat": 25.21453,
                "lng": 121.5392539
            }
        }
    ],
    "八": [
        {
            "name": "八賢里活動中心",
            "address": "八連溪４１號",
            "location": {
                "lat": 25.21453,
                "lng": 121.5392539
            }
        }
    ],
    "頭": [
        {
            "name": "三芝國小(1年1班教室)",
            "address": "育英街２２號",
            "location": {
                "lat": 25.2581038,
                "lng": 121.5013799
            }
        },
        {
            "name": "三芝國小(1年3班)",
            "address": "育英街２２號",
            "location": {
                "lat": 25.2581038,
                "lng": 121.5013799
            }
        },
        {
            "name": "三芝國小(1年5班教室)",
            "address": "育英街２２號",
            "location": {
                "lat": 25.2581038,
                "lng": 121.5013799
            }
        }
    ],
    "埔": [
        {
            "name": "三芝國小(1年1班教室)",
            "address": "育英街２２號",
            "location": {
                "lat": 25.2581038,
                "lng": 121.5013799
            }
        },
        {
            "name": "三芝國小(1年3班)",
            "address": "育英街２２號",
            "location": {
                "lat": 25.2581038,
                "lng": 121.5013799
            }
        },
        {
            "name": "三芝國小(1年5班教室)",
            "address": "育英街２２號",
            "location": {
                "lat": 25.2581038,
                "lng": 121.5013799
            }
        },
        {
            "name": "三芝國中(703教室)",
            "address": "淡金路一段３８號",
            "location": {
                "lat": 25.2592717,
                "lng": 121.5003161
            }
        },
        {
            "name": "三芝國中(資源教室A)",
            "address": "淡金路一段３８號",
            "location": {
                "lat": 25.2592717,
                "lng": 121.5003161
            }
        },
        {
            "name": "三芝國中(901教室)",
            "address": "淡金路一段３８號",
            "location": {
                "lat": 25.2592717,
                "lng": 121.5003161
            }
        },
        {
            "name": "三芝國中(902教室)",
            "address": "淡金路一段３８號",
            "location": {
                "lat": 25.2592717,
                "lng": 121.5003161
            }
        }
    ],
    "庄": [
        {
            "name": "福德宮活動中心",
            "address": "茂興店８７號",
            "location": {
                "lat": 25.265169,
                "lng": 121.486279
            }
        },
        {
            "name": "三和社區活動中心",
            "address": "蕃社后３之１號",
            "location": {
                "lat": 25.247556,
                "lng": 121.4720052
            }
        }
    ],
    "古": [
        {
            "name": "福德宮活動中心",
            "address": "茂興店８７號",
            "location": {
                "lat": 25.265169,
                "lng": 121.486279
            }
        }
    ],
    "新": [
        {
            "name": "三和社區活動中心",
            "address": "蕃社后３之１號",
            "location": {
                "lat": 25.247556,
                "lng": 121.4720052
            }
        }
    ],
    "坪": [
        {
            "name": "三芝國中(703教室)",
            "address": "淡金路一段３８號",
            "location": {
                "lat": 25.2592717,
                "lng": 121.5003161
            }
        },
        {
            "name": "三芝國中(資源教室A)",
            "address": "淡金路一段３８號",
            "location": {
                "lat": 25.2592717,
                "lng": 121.5003161
            }
        },
        {
            "name": "三芝國中(901教室)",
            "address": "淡金路一段３８號",
            "location": {
                "lat": 25.2592717,
                "lng": 121.5003161
            }
        },
        {
            "name": "三芝國中(902教室)",
            "address": "淡金路一段３８號",
            "location": {
                "lat": 25.2592717,
                "lng": 121.5003161
            }
        }
    ],
    "長": [
        {
            "name": "茂長里活動中心",
            "address": "陳厝坑６１之３號",
            "location": {
                "lat": 25.2519412,
                "lng": 121.5017987
            }
        }
    ],
    "茂": [
        {
            "name": "茂長里活動中心",
            "address": "陳厝坑６１之３號",
            "location": {
                "lat": 25.2519412,
                "lng": 121.5017987
            }
        }
    ],
    "山": [
        {
            "name": "橫山里活動中心",
            "address": "大坑８６之１號",
            "location": {
                "lat": 25.2206742,
                "lng": 121.5283961
            }
        },
        {
            "name": "圓山里活動中心",
            "address": "木屐寮３２之２號",
            "location": {
                "lat": 0,
                "lng": 0
            }
        }
    ],
    "橫": [
        {
            "name": "橫山里活動中心",
            "address": "大坑８６之１號",
            "location": {
                "lat": 25.2206742,
                "lng": 121.5283961
            }
        }
    ],
    "板": [
        {
            "name": "錫板智成堂",
            "address": "海尾１７號",
            "location": {
                "lat": 25.247404,
                "lng": 121.490923
            }
        }
    ],
    "錫": [
        {
            "name": "錫板智成堂",
            "address": "海尾１７號",
            "location": {
                "lat": 25.247404,
                "lng": 121.490923
            }
        }
    ],
    "厝": [
        {
            "name": "芝蘭老人文康活動中心",
            "address": "北勢子４１之１號",
            "location": {
                "lat": 25.2343177,
                "lng": 121.4755361
            }
        }
    ],
    "後": [
        {
            "name": "芝蘭老人文康活動中心",
            "address": "北勢子４１之１號",
            "location": {
                "lat": 25.2343177,
                "lng": 121.4755361
            }
        }
    ],
    "德": [
        {
            "name": "福德里活動中心",
            "address": "埔尾９之１號",
            "location": {
                "lat": 25.2587033,
                "lng": 121.4996959
            }
        }
    ],
    "福": [
        {
            "name": "福德里活動中心",
            "address": "埔尾９之１號",
            "location": {
                "lat": 25.2587033,
                "lng": 121.4996959
            }
        }
    ],
    "圓": [
        {
            "name": "圓山里活動中心",
            "address": "木屐寮３２之２號",
            "location": {
                "lat": 0,
                "lng": 0
            }
        }
    ],
    "子": [
        {
            "name": "三芝區農會北新庄辦事處集貨場",
            "address": "楓子林４９之２號",
            "location": {
                "lat": 25.220799,
                "lng": 121.5290826
            }
        }
    ],
    "店": [
        {
            "name": "三芝區農會北新庄辦事處集貨場",
            "address": "楓子林４９之２號",
            "location": {
                "lat": 25.220799,
                "lng": 121.5290826
            }
        }
    ],
    "華": [
        {
            "name": "興華國小風雨教室",
            "address": "田心子５號",
            "location": {
                "lat": 25.201225,
                "lng": 121.493698
            }
        }
    ],
    "興": [
        {
            "name": "興華國小風雨教室",
            "address": "田心子５號",
            "location": {
                "lat": 25.201225,
                "lng": 121.493698
            }
        }
    ]
}