{
    "里": [
        {
            "name": "薯榔市民活動中心",
            "address": "靜安路二段６３號",
            "location": {
                "lat": 0,
                "lng": 0
            }
        },
        {
            "name": "菁桐市民活動中心",
            "address": "菁桐街６５之１號",
            "location": {
                "lat": 25.02396,
                "lng": 121.7251531
            }
        },
        {
            "name": "白石市民活動中心",
            "address": "靜安路二段２４１號",
            "location": {
                "lat": 0,
                "lng": 0
            }
        },
        {
            "name": "平溪市民活動中心",
            "address": "公園街１７號",
            "location": {
                "lat": 25.0251042,
                "lng": 121.7379809
            }
        },
        {
            "name": "平溪國小禮堂",
            "address": "平溪街５６號",
            "location": {
                "lat": 25.0292313,
                "lng": 121.7364822
            }
        },
        {
            "name": "嶺腳市民活動中心",
            "address": "嶺腳寮１４號",
            "location": {
                "lat": 25.0303776,
                "lng": 121.7793344
            }
        },
        {
            "name": "東勢市民活動中心",
            "address": "?蓁林６２之１號",
            "location": {
                "lat": 25.0303776,
                "lng": 121.7793344
            }
        },
        {
            "name": "十分市民活動中心",
            "address": "十分街１５９號",
            "location": {
                "lat": 25.0430998,
                "lng": 121.7767203
            }
        },
        {
            "name": "十分國小三年級教室",
            "address": "十分街１５７號",
            "location": {
                "lat": 25.0430998,
                "lng": 121.7767203
            }
        },
        {
            "name": "南山市民活動中心",
            "address": "靜安路三段２３２號",
            "location": {
                "lat": 0,
                "lng": 0
            }
        },
        {
            "name": "十分國小四年級教室",
            "address": "十分街１５７號",
            "location": {
                "lat": 25.0430998,
                "lng": 121.7767203
            }
        },
        {
            "name": "平湖市民活動中心",
            "address": "大湖１０號",
            "location": {
                "lat": 25.0193152,
                "lng": 121.6981908
            }
        }
    ],
    "榔": [
        {
            "name": "薯榔市民活動中心",
            "address": "靜安路二段６３號",
            "location": {
                "lat": 0,
                "lng": 0
            }
        }
    ],
    "薯": [
        {
            "name": "薯榔市民活動中心",
            "address": "靜安路二段６３號",
            "location": {
                "lat": 0,
                "lng": 0
            }
        }
    ],
    "桐": [
        {
            "name": "菁桐市民活動中心",
            "address": "菁桐街６５之１號",
            "location": {
                "lat": 25.02396,
                "lng": 121.7251531
            }
        }
    ],
    "菁": [
        {
            "name": "菁桐市民活動中心",
            "address": "菁桐街６５之１號",
            "location": {
                "lat": 25.02396,
                "lng": 121.7251531
            }
        }
    ],
    "石": [
        {
            "name": "白石市民活動中心",
            "address": "靜安路二段２４１號",
            "location": {
                "lat": 0,
                "lng": 0
            }
        },
        {
            "name": "平溪市民活動中心",
            "address": "公園街１７號",
            "location": {
                "lat": 25.0251042,
                "lng": 121.7379809
            }
        }
    ],
    "白": [
        {
            "name": "白石市民活動中心",
            "address": "靜安路二段２４１號",
            "location": {
                "lat": 0,
                "lng": 0
            }
        }
    ],
    "底": [
        {
            "name": "平溪市民活動中心",
            "address": "公園街１７號",
            "location": {
                "lat": 25.0251042,
                "lng": 121.7379809
            }
        }
    ],
    "溪": [
        {
            "name": "平溪國小禮堂",
            "address": "平溪街５６號",
            "location": {
                "lat": 25.0292313,
                "lng": 121.7364822
            }
        }
    ],
    "平": [
        {
            "name": "平溪國小禮堂",
            "address": "平溪街５６號",
            "location": {
                "lat": 25.0292313,
                "lng": 121.7364822
            }
        },
        {
            "name": "平湖市民活動中心",
            "address": "大湖１０號",
            "location": {
                "lat": 25.0193152,
                "lng": 121.6981908
            }
        }
    ],
    "腳": [
        {
            "name": "嶺腳市民活動中心",
            "address": "嶺腳寮１４號",
            "location": {
                "lat": 25.0303776,
                "lng": 121.7793344
            }
        }
    ],
    "嶺": [
        {
            "name": "嶺腳市民活動中心",
            "address": "嶺腳寮１４號",
            "location": {
                "lat": 25.0303776,
                "lng": 121.7793344
            }
        }
    ],
    "勢": [
        {
            "name": "東勢市民活動中心",
            "address": "?蓁林６２之１號",
            "location": {
                "lat": 25.0303776,
                "lng": 121.7793344
            }
        }
    ],
    "東": [
        {
            "name": "東勢市民活動中心",
            "address": "?蓁林６２之１號",
            "location": {
                "lat": 25.0303776,
                "lng": 121.7793344
            }
        }
    ],
    "分": [
        {
            "name": "十分市民活動中心",
            "address": "十分街１５９號",
            "location": {
                "lat": 25.0430998,
                "lng": 121.7767203
            }
        }
    ],
    "十": [
        {
            "name": "十分市民活動中心",
            "address": "十分街１５９號",
            "location": {
                "lat": 25.0430998,
                "lng": 121.7767203
            }
        }
    ],
    "古": [
        {
            "name": "十分國小三年級教室",
            "address": "十分街１５７號",
            "location": {
                "lat": 25.0430998,
                "lng": 121.7767203
            }
        }
    ],
    "望": [
        {
            "name": "十分國小三年級教室",
            "address": "十分街１５７號",
            "location": {
                "lat": 25.0430998,
                "lng": 121.7767203
            }
        }
    ],
    "山": [
        {
            "name": "南山市民活動中心",
            "address": "靜安路三段２３２號",
            "location": {
                "lat": 0,
                "lng": 0
            }
        }
    ],
    "南": [
        {
            "name": "南山市民活動中心",
            "address": "靜安路三段２３２號",
            "location": {
                "lat": 0,
                "lng": 0
            }
        }
    ],
    "寮": [
        {
            "name": "十分國小四年級教室",
            "address": "十分街１５７號",
            "location": {
                "lat": 25.0430998,
                "lng": 121.7767203
            }
        }
    ],
    "新": [
        {
            "name": "十分國小四年級教室",
            "address": "十分街１５７號",
            "location": {
                "lat": 25.0430998,
                "lng": 121.7767203
            }
        }
    ],
    "湖": [
        {
            "name": "平湖市民活動中心",
            "address": "大湖１０號",
            "location": {
                "lat": 25.0193152,
                "lng": 121.6981908
            }
        }
    ]
}