{
    "里": [
        {
            "name": "堰堤社區籃球場",
            "address": "新烏路五段１０８號",
            "location": {
                "lat": 24.9032501,
                "lng": 121.552559
            }
        },
        {
            "name": "烏來綜合活動中心",
            "address": "烏來街３４號",
            "location": {
                "lat": 24.8635942,
                "lng": 121.5514039
            }
        },
        {
            "name": "烏來社區活動中心(教會對面)",
            "address": "環山路８２巷５號２樓",
            "location": {
                "lat": 24.8636154,
                "lng": 121.5476045
            }
        },
        {
            "name": "孝義里辦公處",
            "address": "阿玉路２０號",
            "location": {
                "lat": 24.8495832,
                "lng": 121.5788265
            }
        },
        {
            "name": "信賢社區活動中心",
            "address": "信福路４８號",
            "location": {
                "lat": 24.8151273,
                "lng": 121.5147779
            }
        },
        {
            "name": "福山社區活動中心",
            "address": "李茂岸５１號",
            "location": {
                "lat": 0,
                "lng": 0
            }
        }
    ],
    "治": [
        {
            "name": "堰堤社區籃球場",
            "address": "新烏路五段１０８號",
            "location": {
                "lat": 24.9032501,
                "lng": 121.552559
            }
        }
    ],
    "忠": [
        {
            "name": "堰堤社區籃球場",
            "address": "新烏路五段１０８號",
            "location": {
                "lat": 24.9032501,
                "lng": 121.552559
            }
        }
    ],
    "來": [
        {
            "name": "烏來綜合活動中心",
            "address": "烏來街３４號",
            "location": {
                "lat": 24.8635942,
                "lng": 121.5514039
            }
        },
        {
            "name": "烏來社區活動中心(教會對面)",
            "address": "環山路８２巷５號２樓",
            "location": {
                "lat": 24.8636154,
                "lng": 121.5476045
            }
        }
    ],
    "烏": [
        {
            "name": "烏來綜合活動中心",
            "address": "烏來街３４號",
            "location": {
                "lat": 24.8635942,
                "lng": 121.5514039
            }
        },
        {
            "name": "烏來社區活動中心(教會對面)",
            "address": "環山路８２巷５號２樓",
            "location": {
                "lat": 24.8636154,
                "lng": 121.5476045
            }
        }
    ],
    "義": [
        {
            "name": "孝義里辦公處",
            "address": "阿玉路２０號",
            "location": {
                "lat": 24.8495832,
                "lng": 121.5788265
            }
        }
    ],
    "孝": [
        {
            "name": "孝義里辦公處",
            "address": "阿玉路２０號",
            "location": {
                "lat": 24.8495832,
                "lng": 121.5788265
            }
        }
    ],
    "賢": [
        {
            "name": "信賢社區活動中心",
            "address": "信福路４８號",
            "location": {
                "lat": 24.8151273,
                "lng": 121.5147779
            }
        }
    ],
    "信": [
        {
            "name": "信賢社區活動中心",
            "address": "信福路４８號",
            "location": {
                "lat": 24.8151273,
                "lng": 121.5147779
            }
        }
    ],
    "山": [
        {
            "name": "福山社區活動中心",
            "address": "李茂岸５１號",
            "location": {
                "lat": 0,
                "lng": 0
            }
        }
    ],
    "福": [
        {
            "name": "福山社區活動中心",
            "address": "李茂岸５１號",
            "location": {
                "lat": 0,
                "lng": 0
            }
        }
    ]
}