{
    "里": [
        {
            "name": "三忠廟",
            "address": "長安街１５號",
            "location": {
                "lat": 25.0348008,
                "lng": 121.8649342
            }
        },
        {
            "name": "新基市民活動中心",
            "address": "新基北街６４號",
            "location": {
                "lat": 25.039148,
                "lng": 121.8682668
            }
        },
        {
            "name": "新基西街活動中心",
            "address": "新基西街１５號",
            "location": {
                "lat": 25.03751,
                "lng": 121.8657586
            }
        },
        {
            "name": "三港市民活動中心",
            "address": "三港７號",
            "location": {
                "lat": 25.061046,
                "lng": 121.8761846
            }
        },
        {
            "name": "牡丹市民活動中心",
            "address": "下坑３６號",
            "location": {
                "lat": 25.0563892,
                "lng": 121.8506596
            }
        },
        {
            "name": "中正市民活動中心",
            "address": "中正路６４號",
            "location": {
                "lat": 25.1075262,
                "lng": 121.8062419
            }
        },
        {
            "name": "牡丹國小",
            "address": "政光３號",
            "location": {
                "lat": 0,
                "lng": 0
            }
        },
        {
            "name": "平林市民活動中心",
            "address": "外平林５２號",
            "location": {
                "lat": 25.034989,
                "lng": 121.8637226
            }
        },
        {
            "name": "新北市立雙溪高中",
            "address": "梅竹蹊３號",
            "location": {
                "lat": 25.036519,
                "lng": 121.860924
            }
        },
        {
            "name": "上林國小",
            "address": "內平林６０號",
            "location": {
                "lat": 25.016943,
                "lng": 121.7983522
            }
        },
        {
            "name": "外柑市民活動中心",
            "address": "外柑腳４９號",
            "location": {
                "lat": 25.016943,
                "lng": 121.7983522
            }
        },
        {
            "name": "長源市民活動中心",
            "address": "柑腳１９號",
            "location": {
                "lat": 25.0183861,
                "lng": 121.8091723
            }
        },
        {
            "name": "雙溪國小",
            "address": "東榮街５４號",
            "location": {
                "lat": 25.0331703,
                "lng": 121.8668683
            }
        },
        {
            "name": "共和市民活動中心",
            "address": "中山路４１巷６號",
            "location": {
                "lat": 25.031896,
                "lng": 121.8660995
            }
        },
        {
            "name": "保民殿",
            "address": "魚杭１號",
            "location": {
                "lat": 0,
                "lng": 0
            }
        },
        {
            "name": "合壽產業股份有限公司",
            "address": "坤溪３之５號",
            "location": {
                "lat": 25.0237502,
                "lng": 121.8756392
            }
        },
        {
            "name": "泰平市民活動中心",
            "address": "溪尾寮４６號",
            "location": {
                "lat": 24.96127,
                "lng": 121.819618
            }
        },
        {
            "name": "聖寶宮",
            "address": "烏山40號",
            "location": {
                "lat": 24.9372656,
                "lng": 121.8204672
            }
        }
    ],
    "溪": [
        {
            "name": "三忠廟",
            "address": "長安街１５號",
            "location": {
                "lat": 25.0348008,
                "lng": 121.8649342
            }
        }
    ],
    "雙": [
        {
            "name": "三忠廟",
            "address": "長安街１５號",
            "location": {
                "lat": 25.0348008,
                "lng": 121.8649342
            }
        }
    ],
    "基": [
        {
            "name": "新基市民活動中心",
            "address": "新基北街６４號",
            "location": {
                "lat": 25.039148,
                "lng": 121.8682668
            }
        },
        {
            "name": "新基西街活動中心",
            "address": "新基西街１５號",
            "location": {
                "lat": 25.03751,
                "lng": 121.8657586
            }
        }
    ],
    "新": [
        {
            "name": "新基市民活動中心",
            "address": "新基北街６４號",
            "location": {
                "lat": 25.039148,
                "lng": 121.8682668
            }
        },
        {
            "name": "新基西街活動中心",
            "address": "新基西街１５號",
            "location": {
                "lat": 25.03751,
                "lng": 121.8657586
            }
        }
    ],
    "港": [
        {
            "name": "三港市民活動中心",
            "address": "三港７號",
            "location": {
                "lat": 25.061046,
                "lng": 121.8761846
            }
        }
    ],
    "三": [
        {
            "name": "三港市民活動中心",
            "address": "三港７號",
            "location": {
                "lat": 25.061046,
                "lng": 121.8761846
            }
        },
        {
            "name": "牡丹國小",
            "address": "政光３號",
            "location": {
                "lat": 0,
                "lng": 0
            }
        }
    ],
    "丹": [
        {
            "name": "牡丹市民活動中心",
            "address": "下坑３６號",
            "location": {
                "lat": 25.0563892,
                "lng": 121.8506596
            }
        },
        {
            "name": "中正市民活動中心",
            "address": "中正路６４號",
            "location": {
                "lat": 25.1075262,
                "lng": 121.8062419
            }
        }
    ],
    "牡": [
        {
            "name": "牡丹市民活動中心",
            "address": "下坑３６號",
            "location": {
                "lat": 25.0563892,
                "lng": 121.8506596
            }
        },
        {
            "name": "中正市民活動中心",
            "address": "中正路６４號",
            "location": {
                "lat": 25.1075262,
                "lng": 121.8062419
            }
        }
    ],
    "貂": [
        {
            "name": "牡丹國小",
            "address": "政光３號",
            "location": {
                "lat": 0,
                "lng": 0
            }
        }
    ],
    "林": [
        {
            "name": "平林市民活動中心",
            "address": "外平林５２號",
            "location": {
                "lat": 25.034989,
                "lng": 121.8637226
            }
        },
        {
            "name": "新北市立雙溪高中",
            "address": "梅竹蹊３號",
            "location": {
                "lat": 25.036519,
                "lng": 121.860924
            }
        },
        {
            "name": "上林國小",
            "address": "內平林６０號",
            "location": {
                "lat": 25.016943,
                "lng": 121.7983522
            }
        }
    ],
    "平": [
        {
            "name": "平林市民活動中心",
            "address": "外平林５２號",
            "location": {
                "lat": 25.034989,
                "lng": 121.8637226
            }
        },
        {
            "name": "新北市立雙溪高中",
            "address": "梅竹蹊３號",
            "location": {
                "lat": 25.036519,
                "lng": 121.860924
            }
        },
        {
            "name": "泰平市民活動中心",
            "address": "溪尾寮４６號",
            "location": {
                "lat": 24.96127,
                "lng": 121.819618
            }
        },
        {
            "name": "聖寶宮",
            "address": "烏山40號",
            "location": {
                "lat": 24.9372656,
                "lng": 121.8204672
            }
        }
    ],
    "上": [
        {
            "name": "上林國小",
            "address": "內平林６０號",
            "location": {
                "lat": 25.016943,
                "lng": 121.7983522
            }
        }
    ],
    "柑": [
        {
            "name": "外柑市民活動中心",
            "address": "外柑腳４９號",
            "location": {
                "lat": 25.016943,
                "lng": 121.7983522
            }
        }
    ],
    "外": [
        {
            "name": "外柑市民活動中心",
            "address": "外柑腳４９號",
            "location": {
                "lat": 25.016943,
                "lng": 121.7983522
            }
        }
    ],
    "源": [
        {
            "name": "長源市民活動中心",
            "address": "柑腳１９號",
            "location": {
                "lat": 25.0183861,
                "lng": 121.8091723
            }
        }
    ],
    "長": [
        {
            "name": "長源市民活動中心",
            "address": "柑腳１９號",
            "location": {
                "lat": 25.0183861,
                "lng": 121.8091723
            }
        }
    ],
    "和": [
        {
            "name": "雙溪國小",
            "address": "東榮街５４號",
            "location": {
                "lat": 25.0331703,
                "lng": 121.8668683
            }
        },
        {
            "name": "共和市民活動中心",
            "address": "中山路４１巷６號",
            "location": {
                "lat": 25.031896,
                "lng": 121.8660995
            }
        }
    ],
    "共": [
        {
            "name": "雙溪國小",
            "address": "東榮街５４號",
            "location": {
                "lat": 25.0331703,
                "lng": 121.8668683
            }
        },
        {
            "name": "共和市民活動中心",
            "address": "中山路４１巷６號",
            "location": {
                "lat": 25.031896,
                "lng": 121.8660995
            }
        }
    ],
    "行": [
        {
            "name": "保民殿",
            "address": "魚杭１號",
            "location": {
                "lat": 0,
                "lng": 0
            }
        },
        {
            "name": "合壽產業股份有限公司",
            "address": "坤溪３之５號",
            "location": {
                "lat": 25.0237502,
                "lng": 121.8756392
            }
        }
    ],
    "魚": [
        {
            "name": "保民殿",
            "address": "魚杭１號",
            "location": {
                "lat": 0,
                "lng": 0
            }
        },
        {
            "name": "合壽產業股份有限公司",
            "address": "坤溪３之５號",
            "location": {
                "lat": 25.0237502,
                "lng": 121.8756392
            }
        }
    ],
    "泰": [
        {
            "name": "泰平市民活動中心",
            "address": "溪尾寮４６號",
            "location": {
                "lat": 24.96127,
                "lng": 121.819618
            }
        },
        {
            "name": "聖寶宮",
            "address": "烏山40號",
            "location": {
                "lat": 24.9372656,
                "lng": 121.8204672
            }
        }
    ]
}