[
    {
        "name": "天新素食自助餐",
        "address": "大安路1段157巷3-1號",
        "neighborhood": [
            "德安里"
        ],
        "phone": "2703-8818",
        "location": {
            "lat": 25.0372962,
            "lng": 121.5463333
        }
    },
    {
        "name": "仁愛教育館",
        "address": "信義路4段99巷31號",
        "neighborhood": [
            "德安里"
        ],
        "phone": "2707-8004",
        "location": {
            "lat": 25.0348743,
            "lng": 121.5471363
        }
    },
    {
        "name": "中華電信大安服務中心",
        "address": "信義路4段89-1號",
        "neighborhood": [
            "德安里"
        ],
        "phone": "2702-0717",
        "location": {
            "lat": 25.0335555,
            "lng": 121.5468525
        }
    },
    {
        "name": "中華電信東三機房",
        "address": "信義路4段89號",
        "neighborhood": [
            "德安里"
        ],
        "phone": "2702-0717",
        "location": {
            "lat": 25.032598,
            "lng": 121.545547
        }
    },
    {
        "name": "世界紅卍字會台灣總主會（大廳）",
        "address": "復興南路1段303號",
        "neighborhood": [
            "仁慈里"
        ],
        "phone": "2704-8165",
        "location": {
            "lat": 25.0348825,
            "lng": 121.54388
        }
    },
    {
        "name": "世界紅卍字會台灣總主會（大門前）",
        "address": "復興南路1段303號",
        "neighborhood": [
            "仁慈里"
        ],
        "phone": "2704-8165",
        "location": {
            "lat": 25.0348825,
            "lng": 121.54388
        }
    },
    {
        "name": "中國基督教信義會恩光堂",
        "address": "復興南路1段253巷13號",
        "neighborhood": [
            "仁慈里"
        ],
        "phone": "2707-9311",
        "location": {
            "lat": 25.0369042,
            "lng": 121.5441195
        }
    },
    {
        "name": "客家文化會館1樓",
        "address": "信義路3段157巷11號",
        "neighborhood": [
            "和安里"
        ],
        "phone": "2702-6141轉320",
        "location": {
            "lat": 25.0345278,
            "lng": 121.5430583
        }
    },
    {
        "name": "師大附中體育館(南側)",
        "address": "信義路3段143號",
        "neighborhood": [
            "和安里"
        ],
        "phone": "2707-5215轉311",
        "location": {
            "lat": 25.0336886,
            "lng": 121.5404042
        }
    },
    {
        "name": "師大附中體育館(北側)",
        "address": "信義路3段143號",
        "neighborhood": [
            "和安里"
        ],
        "phone": "2707-5215轉311",
        "location": {
            "lat": 25.0336886,
            "lng": 121.5404042
        }
    },
    {
        "name": "師大附中演講廳",
        "address": "信義路3段143號",
        "neighborhood": [
            "和安里"
        ],
        "phone": "2707-5215轉311",
        "location": {
            "lat": 25.0336886,
            "lng": 121.5404042
        }
    },
    {
        "name": "幸安國小1年3班教室",
        "address": "仁愛路3段22號",
        "neighborhood": [
            "民炤里"
        ],
        "phone": "2707-4191",
        "location": {
            "lat": 25.037684,
            "lng": 121.5349702
        }
    },
    {
        "name": "幸安國小1年1班教室",
        "address": "仁愛路3段22號",
        "neighborhood": [
            "民炤里"
        ],
        "phone": "2707-4191",
        "location": {
            "lat": 25.037684,
            "lng": 121.5349702
        }
    },
    {
        "name": "幸安國小1年8班教室",
        "address": "仁愛路3段22號",
        "neighborhood": [
            "民炤里"
        ],
        "phone": "2707-4191",
        "location": {
            "lat": 25.037684,
            "lng": 121.5349702
        }
    },
    {
        "name": "幸安國小1年6班教室",
        "address": "仁愛路3段22號",
        "neighborhood": [
            "民炤里"
        ],
        "phone": "2707-4191",
        "location": {
            "lat": 25.037684,
            "lng": 121.5349702
        }
    },
    {
        "name": "幸安國小1年4班教室",
        "address": "仁愛路3段22號",
        "neighborhood": [
            "民炤里"
        ],
        "phone": "2707-4191",
        "location": {
            "lat": 25.037684,
            "lng": 121.5349702
        }
    },
    {
        "name": "復興小學誠賢樓雙語部1年和班教室",
        "address": "敦化南路1段262號",
        "neighborhood": [
            "仁愛里"
        ],
        "phone": "2771-5859",
        "location": {
            "lat": 25.0393604,
            "lng": 121.5483831
        }
    },
    {
        "name": "復興小學誠賢樓雙語部2年和班教室",
        "address": "敦化南路1段262號",
        "neighborhood": [
            "仁愛里"
        ],
        "phone": "2771-5859",
        "location": {
            "lat": 25.0393604,
            "lng": 121.5483831
        }
    },
    {
        "name": "復興小學慎思樓1年愛班教室",
        "address": "敦化南路1段262號",
        "neighborhood": [
            "仁愛里"
        ],
        "phone": "2771-5859",
        "location": {
            "lat": 25.0393604,
            "lng": 121.5483831
        }
    },
    {
        "name": "復興小學慎思樓1年義班教室",
        "address": "敦化南路1段262號",
        "neighborhood": [
            "仁愛里"
        ],
        "phone": "2771-5859",
        "location": {
            "lat": 25.0393604,
            "lng": 121.5483831
        }
    },
    {
        "name": "懷生國中體育館(跆拳道教室)",
        "address": "忠孝東路3段248巷30號",
        "neighborhood": [
            "義村里"
        ],
        "phone": "2721-5078",
        "location": {
            "lat": 25.0403291,
            "lng": 121.5411787
        }
    },
    {
        "name": "懷生國中(穿堂)",
        "address": "忠孝東路3段248巷30號",
        "neighborhood": [
            "義村里"
        ],
        "phone": "2721-5078",
        "location": {
            "lat": 25.0403291,
            "lng": 121.5411787
        }
    },
    {
        "name": "懷生國中體育館(乒乓球教室1)",
        "address": "忠孝東路3段248巷30號",
        "neighborhood": [
            "義村里"
        ],
        "phone": "2721-5078",
        "location": {
            "lat": 25.0403291,
            "lng": 121.5411787
        }
    },
    {
        "name": "懷生國中體育館(乒乓球教室2)",
        "address": "忠孝東路3段248巷30號",
        "neighborhood": [
            "義村里"
        ],
        "phone": "2721-5078",
        "location": {
            "lat": 25.0403291,
            "lng": 121.5411787
        }
    },
    {
        "name": "臺北衛理幼稚園",
        "address": "新生南路1段117號",
        "neighborhood": [
            "民輝里"
        ],
        "phone": "2771-2017轉145",
        "location": {
            "lat": 25.039433,
            "lng": 121.5331092
        }
    },
    {
        "name": "臺北衛理堂會議室",
        "address": "新生南路1段113號",
        "neighborhood": [
            "民輝里"
        ],
        "phone": "2771-2017轉145",
        "location": {
            "lat": 25.0398249,
            "lng": 121.5330981
        }
    },
    {
        "name": "民輝里民活動場所",
        "address": "濟南路3段35-9號",
        "neighborhood": [
            "民輝里"
        ],
        "phone": "無",
        "location": {
            "lat": 25.0403569,
            "lng": 121.5355732
        }
    },
    {
        "name": "國立臺北科技大學土木工程館1樓大廳",
        "address": "新生南路1段3號",
        "neighborhood": [
            "民輝里"
        ],
        "phone": "2771-2171轉1320",
        "location": {
            "lat": 25.04373,
            "lng": 121.533269
        }
    },
    {
        "name": "敦歆幼兒園",
        "address": "忠孝東路3段217巷2弄8號1樓",
        "neighborhood": [
            "昌隆里"
        ],
        "phone": "2776-1626",
        "location": {
            "lat": 25.0422408,
            "lng": 121.5401346
        }
    },
    {
        "name": "基督教忠孝神召會",
        "address": "忠孝東路3段217巷5弄8號",
        "neighborhood": [
            "昌隆里"
        ],
        "phone": "2752-7186",
        "location": {
            "lat": 25.0434436,
            "lng": 121.5392715
        }
    },
    {
        "name": "吳新松先生車庫",
        "address": "忠孝東路3段251巷4弄4號",
        "neighborhood": [
            "誠安里"
        ],
        "phone": "2771-7665轉202楊小姐",
        "location": {
            "lat": 25.0422783,
            "lng": 121.5414579
        }
    },
    {
        "name": "首府幼兒園",
        "address": "忠孝東路3段251巷9弄8號",
        "neighborhood": [
            "誠安里"
        ],
        "phone": "2731-2020",
        "location": {
            "lat": 25.0432091,
            "lng": 121.5420346
        }
    },
    {
        "name": "萬象大樓穿堂",
        "address": "復興南路1段122巷10號(安東小吃前)",
        "neighborhood": [
            "誠安里"
        ],
        "phone": "2721-1325    郭先生",
        "location": {
            "lat": 25.0465658,
            "lng": 121.5488669
        }
    },
    {
        "name": "金城華廈",
        "address": "敦化南路1段190巷38號1樓",
        "neighborhood": [
            "光武里"
        ],
        "phone": "2721-9728",
        "location": {
            "lat": 25.042572,
            "lng": 121.5470553
        }
    },
    {
        "name": "光武里民活動場所",
        "address": "敦化南路1段160巷20號",
        "neighborhood": [
            "光武里"
        ],
        "phone": "2773-6533",
        "location": {
            "lat": 25.0434483,
            "lng": 121.5476312
        }
    },
    {
        "name": "永豐頂好庭園穿堂",
        "address": "敦化南路1段138號1樓(後門)",
        "neighborhood": [
            "光武里"
        ],
        "phone": "2772-0524",
        "location": {
            "lat": 25.04443,
            "lng": 121.548502
        }
    },
    {
        "name": "加一自助餐",
        "address": "復興南路1段107巷2號1樓",
        "neighborhood": [
            "光武里"
        ],
        "phone": "2741-1089",
        "location": {
            "lat": 25.043562,
            "lng": 121.5443146
        }
    },
    {
        "name": "東區地下街市政服務站",
        "address": "大安路1段77號東區地下街2號店舖",
        "neighborhood": [
            "光武里"
        ],
        "phone": "6638-7856",
        "location": {
            "lat": 25.0419806,
            "lng": 121.5462661
        }
    },
    {
        "name": "新民國小1年忠班教室",
        "address": "辛亥路1段113號",
        "neighborhood": [
            "龍坡里"
        ],
        "phone": "2363-0450",
        "location": {
            "lat": 25.0222236,
            "lng": 121.5316611
        }
    },
    {
        "name": "新民國小1年仁班教室",
        "address": "辛亥路1段113號",
        "neighborhood": [
            "龍坡里"
        ],
        "phone": "2363-0450",
        "location": {
            "lat": 25.0222236,
            "lng": 121.5316611
        }
    },
    {
        "name": "新民國小1年愛班教室",
        "address": "辛亥路1段113號",
        "neighborhood": [
            "龍坡里"
        ],
        "phone": "2363-0450",
        "location": {
            "lat": 25.0222236,
            "lng": 121.5316611
        }
    },
    {
        "name": "新民國小2年孝班教室",
        "address": "辛亥路1段113號",
        "neighborhood": [
            "龍坡里"
        ],
        "phone": "2363-0450",
        "location": {
            "lat": 25.0222236,
            "lng": 121.5316611
        }
    },
    {
        "name": "古亭國小1年1班教室",
        "address": "羅斯福路3段201號",
        "neighborhood": [
            "龍泉里"
        ],
        "phone": "2363-9795",
        "location": {
            "lat": 25.0205827,
            "lng": 121.5287775
        }
    },
    {
        "name": "古亭國小3年2班教室",
        "address": "羅斯福路3段201號",
        "neighborhood": [
            "龍泉里"
        ],
        "phone": "2363-9795",
        "location": {
            "lat": 25.0205827,
            "lng": 121.5287775
        }
    },
    {
        "name": "古亭國小1年3班教室",
        "address": "羅斯福路3段201號",
        "neighborhood": [
            "龍泉里"
        ],
        "phone": "2363-9795",
        "location": {
            "lat": 25.0205827,
            "lng": 121.5287775
        }
    },
    {
        "name": "古亭國小2年1班教室",
        "address": "羅斯福路3段201號",
        "neighborhood": [
            "古風里"
        ],
        "phone": "2363-9795",
        "location": {
            "lat": 25.0205827,
            "lng": 121.5287775
        }
    },
    {
        "name": "古亭國小2年2班教室",
        "address": "羅斯福路3段201號",
        "neighborhood": [
            "古風里"
        ],
        "phone": "2363-9795",
        "location": {
            "lat": 25.0205827,
            "lng": 121.5287775
        }
    },
    {
        "name": "古亭國小2年3班教室",
        "address": "羅斯福路3段201號",
        "neighborhood": [
            "古風里"
        ],
        "phone": "2363-9795",
        "location": {
            "lat": 25.0205827,
            "lng": 121.5287775
        }
    },
    {
        "name": "國立臺灣師範大學誠106班教室",
        "address": "和平東路1段162號",
        "neighborhood": [
            "古莊里"
        ],
        "phone": "7734-3164",
        "location": {
            "lat": 25.0264141,
            "lng": 121.5275748
        }
    },
    {
        "name": "國立臺灣師範大學誠107班教室",
        "address": "和平東路1段162號",
        "neighborhood": [
            "古莊里"
        ],
        "phone": "7734-3164",
        "location": {
            "lat": 25.0264141,
            "lng": 121.5275748
        }
    },
    {
        "name": "國立臺灣師範大學誠108班教室",
        "address": "和平東路1段162號",
        "neighborhood": [
            "古莊里"
        ],
        "phone": "7734-3164",
        "location": {
            "lat": 25.0264141,
            "lng": 121.5275748
        }
    },
    {
        "name": "國立臺灣師範大學誠109班教室",
        "address": "和平東路1段162號",
        "neighborhood": [
            "古莊里"
        ],
        "phone": "7734-3164",
        "location": {
            "lat": 25.0264141,
            "lng": 121.5275748
        }
    },
    {
        "name": "新生國小1年1班教室",
        "address": "新生南路2段36號",
        "neighborhood": [
            "龍安里"
        ],
        "phone": "2391-3122",
        "location": {
            "lat": 25.0298199,
            "lng": 121.53362
        }
    },
    {
        "name": "新生國小1年3班教室",
        "address": "新生南路2段36號",
        "neighborhood": [
            "龍安里"
        ],
        "phone": "2391-3122",
        "location": {
            "lat": 25.0298199,
            "lng": 121.53362
        }
    },
    {
        "name": "新生國小2年1班教室",
        "address": "新生南路2段36號",
        "neighborhood": [
            "龍安里"
        ],
        "phone": "2391-3122",
        "location": {
            "lat": 25.0298199,
            "lng": 121.53362
        }
    },
    {
        "name": "新生國小2年3班教室",
        "address": "新生南路2段36號",
        "neighborhood": [
            "龍安里"
        ],
        "phone": "2391-3122",
        "location": {
            "lat": 25.0298199,
            "lng": 121.53362
        }
    },
    {
        "name": "基督教頌主堂",
        "address": "潮州街124號",
        "neighborhood": [
            "錦安里"
        ],
        "phone": "2321-5083",
        "location": {
            "lat": 25.02867,
            "lng": 121.52724
        }
    },
    {
        "name": "基督教錫安堂",
        "address": "金山南路2段215巷18號",
        "neighborhood": [
            "錦安里"
        ],
        "phone": "2396-8308",
        "location": {
            "lat": 25.0276288,
            "lng": 121.5270844
        }
    },
    {
        "name": "國立臺灣師範大學教育學院大樓104教室",
        "address": "和平東路1段129號",
        "neighborhood": [
            "錦安里"
        ],
        "phone": "7734-5654",
        "location": {
            "lat": 25.026732,
            "lng": 121.528263
        }
    },
    {
        "name": "國立臺灣師範大學教育學院大樓105教室",
        "address": "和平東路1段129號",
        "neighborhood": [
            "錦安里"
        ],
        "phone": "7734-5654",
        "location": {
            "lat": 25.026732,
            "lng": 121.528263
        }
    },
    {
        "name": "金華國中8年24班教室",
        "address": "新生南路2段32號",
        "neighborhood": [
            "福住里"
        ],
        "phone": "3393-1799轉512",
        "location": {
            "lat": 25.0312012,
            "lng": 121.533178
        }
    },
    {
        "name": "金華國中8年25班教室",
        "address": "新生南路2段32號",
        "neighborhood": [
            "福住里"
        ],
        "phone": "3393-1799轉512",
        "location": {
            "lat": 25.0312012,
            "lng": 121.533178
        }
    },
    {
        "name": "金華國中數理資優教室",
        "address": "新生南路2段32號",
        "neighborhood": [
            "福住里"
        ],
        "phone": "3393-1799轉512",
        "location": {
            "lat": 25.0312012,
            "lng": 121.533178
        }
    },
    {
        "name": "金華國中生活教室",
        "address": "新生南路2段32號",
        "neighborhood": [
            "福住里"
        ],
        "phone": "3393-1799轉512",
        "location": {
            "lat": 25.0312012,
            "lng": 121.533178
        }
    },
    {
        "name": "金華國小2年1班教室",
        "address": "愛國東路79巷11號",
        "neighborhood": [
            "永康里"
        ],
        "phone": "2391-7402",
        "location": {
            "lat": 25.0322754,
            "lng": 121.527675
        }
    },
    {
        "name": "金華國小2年3班教室",
        "address": "愛國東路79巷11號",
        "neighborhood": [
            "永康里"
        ],
        "phone": "2391-7402",
        "location": {
            "lat": 25.0322754,
            "lng": 121.527675
        }
    },
    {
        "name": "金甌女子高級中學206教室",
        "address": "杭州南路2段1號",
        "neighborhood": [
            "光明里"
        ],
        "phone": "2321-4765",
        "location": {
            "lat": 25.0347679,
            "lng": 121.5241816
        }
    },
    {
        "name": "金甌女子高級中學207教室",
        "address": "杭州南路2段1號",
        "neighborhood": [
            "光明里"
        ],
        "phone": "2321-4765",
        "location": {
            "lat": 25.0347679,
            "lng": 121.5241816
        }
    },
    {
        "name": "中正國中7年2班教室",
        "address": "愛國東路158號",
        "neighborhood": [
            "錦泰里"
        ],
        "phone": "2391-6697",
        "location": {
            "lat": 25.0323588,
            "lng": 121.5219754
        }
    },
    {
        "name": "中正國中7年4班教室",
        "address": "愛國東路158號",
        "neighborhood": [
            "錦泰里"
        ],
        "phone": "2391-6697",
        "location": {
            "lat": 25.0323588,
            "lng": 121.5219754
        }
    },
    {
        "name": "基督教台北市中心神召會",
        "address": "杭州南路2段95號",
        "neighborhood": [
            "錦華里"
        ],
        "phone": "2321-0665",
        "location": {
            "lat": 25.0284933,
            "lng": 121.5219167
        }
    },
    {
        "name": "台電核火工程處禮堂前段",
        "address": "和平東路1段41巷1號",
        "neighborhood": [
            "錦華里"
        ],
        "phone": "2391-0241轉9702",
        "location": {
            "lat": 25.0266126,
            "lng": 121.5241674
        }
    },
    {
        "name": "台電核火工程處禮堂後段",
        "address": "和平東路1段41巷1號",
        "neighborhood": [
            "錦華里"
        ],
        "phone": "2391-0241轉9702",
        "location": {
            "lat": 25.0266126,
            "lng": 121.5241674
        }
    },
    {
        "name": "大安高工至善樓107教室",
        "address": "復興南路2段52號",
        "neighborhood": [
            "龍圖里"
        ],
        "phone": "2709-1630",
        "location": {
            "lat": 25.0320334,
            "lng": 121.5433601
        }
    },
    {
        "name": "大安高工至善樓106教室",
        "address": "復興南路2段52號",
        "neighborhood": [
            "龍圖里"
        ],
        "phone": "2709-1630",
        "location": {
            "lat": 25.0320334,
            "lng": 121.5433601
        }
    },
    {
        "name": "大安高工至善樓105教室",
        "address": "復興南路2段52號",
        "neighborhood": [
            "龍圖里"
        ],
        "phone": "2709-1630",
        "location": {
            "lat": 25.0320334,
            "lng": 121.5433601
        }
    },
    {
        "name": "大安高工至善樓104教室",
        "address": "復興南路2段52號",
        "neighborhood": [
            "龍圖里"
        ],
        "phone": "2709-1630",
        "location": {
            "lat": 25.0320334,
            "lng": 121.5433601
        }
    },
    {
        "name": "臺北市立圖書館總館1樓",
        "address": "建國南路2段125號",
        "neighborhood": [
            "新龍里"
        ],
        "phone": "2755-2823",
        "location": {
            "lat": 25.029152,
            "lng": 121.538369
        }
    },
    {
        "name": "臺北市立圖書館總館B1甲",
        "address": "建國南路2段125號",
        "neighborhood": [
            "新龍里"
        ],
        "phone": "2755-2823",
        "location": {
            "lat": 25.029152,
            "lng": 121.538369
        }
    },
    {
        "name": "臺北市立圖書館總館B1乙",
        "address": "建國南路2段125號",
        "neighborhood": [
            "新龍里"
        ],
        "phone": "2755-2823",
        "location": {
            "lat": 25.029152,
            "lng": 121.538369
        }
    },
    {
        "name": "大安社區管理委員會",
        "address": "信義路3段134巷84號",
        "neighborhood": [
            "新龍里"
        ],
        "phone": "27025783",
        "location": {
            "lat": 25.0293859,
            "lng": 121.5392822
        }
    },
    {
        "name": "開平餐飲學校AC102教室",
        "address": "復興南路2段148巷24號",
        "neighborhood": [
            "龍陣里"
        ],
        "phone": "2707-0904轉371",
        "location": {
            "lat": 25.0285433,
            "lng": 121.5423719
        }
    },
    {
        "name": "開平餐飲學校AC104教室",
        "address": "復興南路2段148巷24號",
        "neighborhood": [
            "龍陣里"
        ],
        "phone": "2707-0904轉371",
        "location": {
            "lat": 25.0285433,
            "lng": 121.5423719
        }
    },
    {
        "name": "建安國小2年1班教室",
        "address": "大安路2段99號",
        "neighborhood": [
            "龍雲里"
        ],
        "phone": "2707-7119",
        "location": {
            "lat": 25.0293967,
            "lng": 121.5461701
        }
    },
    {
        "name": "建安國小2年3班教室",
        "address": "大安路2段99號",
        "neighborhood": [
            "龍雲里"
        ],
        "phone": "2707-7119",
        "location": {
            "lat": 25.0293967,
            "lng": 121.5461701
        }
    },
    {
        "name": "建安國小2年5班教室",
        "address": "大安路2段99號",
        "neighborhood": [
            "龍雲里"
        ],
        "phone": "2707-7119",
        "location": {
            "lat": 25.0293967,
            "lng": 121.5461701
        }
    },
    {
        "name": "龍生里民活動場所",
        "address": "和平東路2段175巷24號",
        "neighborhood": [
            "龍生里"
        ],
        "phone": "2706-4529",
        "location": {
            "lat": 25.026027,
            "lng": 121.541554
        }
    },
    {
        "name": "國立臺北教大實小2年甲班教室",
        "address": "和平東路2段94號",
        "neighborhood": [
            "龍生里"
        ],
        "phone": "2735-6186轉201",
        "location": {
            "lat": 25.0250425,
            "lng": 121.540946
        }
    },
    {
        "name": "國立臺北教大實小2年乙班教室",
        "address": "和平東路2段94號",
        "neighborhood": [
            "龍生里"
        ],
        "phone": "2735-6186轉202",
        "location": {
            "lat": 25.0250425,
            "lng": 121.540946
        }
    },
    {
        "name": "國立臺北教大實小2年丙班教室",
        "address": "和平東路2段94號",
        "neighborhood": [
            "龍生里"
        ],
        "phone": "2735-6186轉203",
        "location": {
            "lat": 25.0250425,
            "lng": 121.540946
        }
    },
    {
        "name": "大安國中915教室",
        "address": "大安路2段63號",
        "neighborhood": [
            "住安里"
        ],
        "phone": "2755-7131",
        "location": {
            "lat": 25.0308602,
            "lng": 121.54625
        }
    },
    {
        "name": "大安國中916教室",
        "address": "大安路2段63號",
        "neighborhood": [
            "住安里"
        ],
        "phone": "2755-7131",
        "location": {
            "lat": 25.0308602,
            "lng": 121.54625
        }
    },
    {
        "name": "大安國中918教室",
        "address": "大安路2段63號",
        "neighborhood": [
            "住安里"
        ],
        "phone": "2755-7131",
        "location": {
            "lat": 25.0308602,
            "lng": 121.54625
        }
    },
    {
        "name": "東方工商科技大樓1樓",
        "address": "信義路4段186巷7號",
        "neighborhood": [
            "義安里"
        ],
        "phone": "2755-4616轉137",
        "location": {
            "lat": 25.0421259,
            "lng": 121.5507559
        }
    },
    {
        "name": "東方工商學生活動中心",
        "address": "信義路4段186巷8號",
        "neighborhood": [
            "義安里"
        ],
        "phone": "2755-4616轉137",
        "location": {
            "lat": 25.0322561,
            "lng": 121.5514468
        }
    },
    {
        "name": "東方工商自衡樓A130教室",
        "address": "信義路4段186巷8號",
        "neighborhood": [
            "義安里"
        ],
        "phone": "2755-4616轉137",
        "location": {
            "lat": 25.0322561,
            "lng": 121.5514468
        }
    },
    {
        "name": "東方工商自衡樓A150教室",
        "address": "信義路4段186巷8號",
        "neighborhood": [
            "義安里"
        ],
        "phone": "2755-4616轉137",
        "location": {
            "lat": 25.0322561,
            "lng": 121.5514468
        }
    },
    {
        "name": "三聖宮",
        "address": "文昌街250巷5號",
        "neighborhood": [
            "通化里"
        ],
        "phone": "2702-0259",
        "location": {
            "lat": 25.0317085,
            "lng": 121.5557846
        }
    },
    {
        "name": "福德宮",
        "address": "通化街39巷11號",
        "neighborhood": [
            "通化里"
        ],
        "phone": "2705-4517",
        "location": {
            "lat": 25.0309964,
            "lng": 121.5547681
        }
    },
    {
        "name": "臺北市電影委員會",
        "address": "光復南路630號",
        "neighborhood": [
            "通化里"
        ],
        "phone": "2709-3880",
        "location": {
            "lat": 25.0315246,
            "lng": 121.5572444
        }
    },
    {
        "name": "理教總公所清心堂",
        "address": "文昌街280巷53號",
        "neighborhood": [
            "通化里"
        ],
        "phone": "2708-1220",
        "location": {
            "lat": 25.0312756,
            "lng": 121.5568709
        }
    },
    {
        "name": "通安區民活動中心1",
        "address": "通安街98號1樓",
        "neighborhood": [
            "通安里"
        ],
        "phone": "",
        "location": {
            "lat": 25.0298396,
            "lng": 121.5530051
        }
    },
    {
        "name": "通安區民活動中心2",
        "address": "通安街98號1樓",
        "neighborhood": [
            "通安里"
        ],
        "phone": "",
        "location": {
            "lat": 25.0298396,
            "lng": 121.5530051
        }
    },
    {
        "name": "頌主堂",
        "address": "通化街162巷2號",
        "neighborhood": [
            "通安里"
        ],
        "phone": "2737-5035",
        "location": {
            "lat": 25.0285357,
            "lng": 121.5534106
        }
    },
    {
        "name": "立人國小穿堂",
        "address": "安和路2段99號",
        "neighborhood": [
            "通安里"
        ],
        "phone": "2738-1188",
        "location": {
            "lat": 25.0298352,
            "lng": 121.5519283
        }
    },
    {
        "name": "中華基督教浸信會潮恩堂",
        "address": "通化街123巷32號",
        "neighborhood": [
            "臨江里"
        ],
        "phone": "2738-2641",
        "location": {
            "lat": 25.0289141,
            "lng": 121.5551937
        }
    },
    {
        "name": "惠真幼兒園1",
        "address": "通化街143巷31號",
        "neighborhood": [
            "臨江里"
        ],
        "phone": "2738-3431",
        "location": {
            "lat": 25.0285311,
            "lng": 121.5558341
        }
    },
    {
        "name": "惠真幼兒園2",
        "address": "通化街143巷31號",
        "neighborhood": [
            "臨江里"
        ],
        "phone": "2738-3431",
        "location": {
            "lat": 25.0285311,
            "lng": 121.5558341
        }
    },
    {
        "name": "喬治工商敬謙堂",
        "address": "基隆路2段172號",
        "neighborhood": [
            "法治里"
        ],
        "phone": "2738-6515轉222",
        "location": {
            "lat": 25.0266263,
            "lng": 121.5548482
        }
    },
    {
        "name": "喬治工商自強樓103教室",
        "address": "基隆路2段172號",
        "neighborhood": [
            "法治里"
        ],
        "phone": "2738-6515轉222",
        "location": {
            "lat": 25.0266263,
            "lng": 121.5548482
        }
    },
    {
        "name": "喬治工商烹飪教室(臺灣小吃)",
        "address": "基隆路2段172號",
        "neighborhood": [
            "法治里"
        ],
        "phone": "2738-6515轉222",
        "location": {
            "lat": 25.0266263,
            "lng": 121.5548482
        }
    },
    {
        "name": "華菂幼兒園1號教室",
        "address": "安和路2段217巷30號",
        "neighborhood": [
            "全安里"
        ],
        "phone": "2735-0267",
        "location": {
            "lat": 25.0318358,
            "lng": 121.5522317
        }
    },
    {
        "name": "華菂幼兒園2號教室",
        "address": "安和路2段217巷30號",
        "neighborhood": [
            "全安里"
        ],
        "phone": "2735-0267",
        "location": {
            "lat": 25.0318358,
            "lng": 121.5522317
        }
    },
    {
        "name": "全安里民活動場所",
        "address": "安和路2段181巷15號１樓",
        "neighborhood": [
            "全安里"
        ],
        "phone": "2736-8446",
        "location": {
            "lat": 25.0274351,
            "lng": 121.5506155
        }
    },
    {
        "name": "中國基督教信義會靈光堂",
        "address": "和平東路2段277號",
        "neighborhood": [
            "群賢里"
        ],
        "phone": "2707-7562",
        "location": {
            "lat": 25.0249556,
            "lng": 121.5443689
        }
    },
    {
        "name": "群賢里民活動場所",
        "address": "和平東路2段311巷43弄36號",
        "neighborhood": [
            "群賢里"
        ],
        "phone": "2700-3623",
        "location": {
            "lat": 25.0254628,
            "lng": 121.5461446
        }
    },
    {
        "name": "基督教救世軍台北中央堂",
        "address": "四維路208巷1號",
        "neighborhood": [
            "群賢里"
        ],
        "phone": "2705-8150",
        "location": {
            "lat": 25.0264313,
            "lng": 121.5478214
        }
    },
    {
        "name": "基督教長老教會大安教會",
        "address": "和平東路3段1巷51號",
        "neighborhood": [
            "群賢里"
        ],
        "phone": "2706-4477",
        "location": {
            "lat": 25.0263672,
            "lng": 121.5468269
        }
    },
    {
        "name": "成功國宅中庭穿堂1",
        "address": "四維路198巷30弄1號前(頂好超商對面)",
        "neighborhood": [
            "群英里"
        ],
        "phone": "2754-7207",
        "location": {
            "lat": 25.026581,
            "lng": 121.546088
        }
    },
    {
        "name": "成功國宅中庭穿堂2",
        "address": "四維路198巷38弄2號前(頂好超商對面)",
        "neighborhood": [
            "群英里"
        ],
        "phone": "2754-7207",
        "location": {
            "lat": 25.0264129,
            "lng": 121.545577
        }
    },
    {
        "name": "大安幼兒園",
        "address": "四維路198巷31弄11號",
        "neighborhood": [
            "群英里"
        ],
        "phone": "2755-1211",
        "location": {
            "lat": 25.027195,
            "lng": 121.545943
        }
    },
    {
        "name": "成功區民活動中心",
        "address": "四維路198巷30弄9號",
        "neighborhood": [
            "群英里"
        ],
        "phone": "2754-7207",
        "location": {
            "lat": 25.0263049,
            "lng": 121.546098
        }
    },
    {
        "name": "臺北市大安區福安宮",
        "address": "臥龍街61號",
        "neighborhood": [
            "虎嘯里"
        ],
        "phone": "2735-5670",
        "location": {
            "lat": 25.0220824,
            "lng": 121.5474811
        }
    },
    {
        "name": "國防部和平新莊閱覽室A",
        "address": "和平東路3段62巷7號",
        "neighborhood": [
            "虎嘯里"
        ],
        "phone": "8732-7353",
        "location": {
            "lat": 25.0240592,
            "lng": 121.5494459
        }
    },
    {
        "name": "國防部和平新莊閱覽室B",
        "address": "和平東路3段62巷7號",
        "neighborhood": [
            "虎嘯里"
        ],
        "phone": "8732-7353",
        "location": {
            "lat": 25.0240592,
            "lng": 121.5494459
        }
    },
    {
        "name": "大安區健康服務中心",
        "address": "辛亥路3段15號",
        "neighborhood": [
            "臥龍里"
        ],
        "phone": "2733-5831",
        "location": {
            "lat": 25.0215769,
            "lng": 121.544274
        }
    },
    {
        "name": "國立臺北教大實小3年甲班教室",
        "address": "和平東路2段94號",
        "neighborhood": [
            "龍淵里"
        ],
        "phone": "2735-6186轉301",
        "location": {
            "lat": 25.0250425,
            "lng": 121.540946
        }
    },
    {
        "name": "國立臺北教大實小3年乙班教室",
        "address": "和平東路2段94號",
        "neighborhood": [
            "龍淵里"
        ],
        "phone": "2735-6186轉302",
        "location": {
            "lat": 25.0250425,
            "lng": 121.540946
        }
    },
    {
        "name": "國立臺北教大實小3年丙班教室",
        "address": "和平東路2段94號",
        "neighborhood": [
            "龍淵里"
        ],
        "phone": "2735-6186轉303",
        "location": {
            "lat": 25.0250425,
            "lng": 121.540946
        }
    },
    {
        "name": "國立臺北教大實小4年丁班教室",
        "address": "和平東路2段94號",
        "neighborhood": [
            "龍淵里"
        ],
        "phone": "2735-6186轉404",
        "location": {
            "lat": 25.0250425,
            "lng": 121.540946
        }
    },
    {
        "name": "國立臺北教大實小2年戊班教室",
        "address": "和平東路2段94號",
        "neighborhood": [
            "龍淵里"
        ],
        "phone": "2735-6186轉205",
        "location": {
            "lat": 25.0250425,
            "lng": 121.540946
        }
    },
    {
        "name": "龍安國小3年2班教室",
        "address": "新生南路3段33號",
        "neighborhood": [
            "龍門里"
        ],
        "phone": "2363-2077轉730-736",
        "location": {
            "lat": 25.0239215,
            "lng": 121.5348854
        }
    },
    {
        "name": "龍安國小3年4班教室",
        "address": "新生南路3段33號",
        "neighborhood": [
            "龍門里"
        ],
        "phone": "2363-2077轉730-736",
        "location": {
            "lat": 25.0239215,
            "lng": 121.5348854
        }
    },
    {
        "name": "龍安國小3年5班教室",
        "address": "新生南路3段33號",
        "neighborhood": [
            "龍門里"
        ],
        "phone": "2363-2077轉730-736",
        "location": {
            "lat": 25.0239215,
            "lng": 121.5348854
        }
    },
    {
        "name": "真理堂",
        "address": "新生南路3段86號",
        "neighborhood": [
            "大學里"
        ],
        "phone": "2363-2096轉122林主任",
        "location": {
            "lat": 25.0188242,
            "lng": 121.532787
        }
    },
    {
        "name": "懷恩堂(樂民館)",
        "address": "新生南路3段90號B1",
        "neighborhood": [
            "大學里"
        ],
        "phone": "2362-5321轉122唐小姐",
        "location": {
            "lat": 25.017788,
            "lng": 121.533171
        }
    },
    {
        "name": "臺電輸變電工程處北區施工處第2工務段停車場",
        "address": "羅斯福路3段283巷30號",
        "neighborhood": [
            "大學里"
        ],
        "phone": "2322-9925",
        "location": {
            "lat": 25.0189376,
            "lng": 121.5316687
        }
    },
    {
        "name": "信友堂停車場",
        "address": "羅斯福路3段283巷19弄11號",
        "neighborhood": [
            "大學里"
        ],
        "phone": "2363-1035轉226",
        "location": {
            "lat": 25.0194062,
            "lng": 121.5310562
        }
    },
    {
        "name": "辛亥區民活動中心",
        "address": "辛亥路1段臨141號",
        "neighborhood": [
            "大學里"
        ],
        "phone": "2351-1711轉8205",
        "location": {
            "lat": 25.0211173,
            "lng": 121.531229
        }
    },
    {
        "name": "大安國小4年8班教室",
        "address": "臥龍街129號",
        "neighborhood": [
            "芳和里"
        ],
        "phone": "2732-2332",
        "location": {
            "lat": 25.0200093,
            "lng": 121.549095
        }
    },
    {
        "name": "大安國小1年6班教室",
        "address": "臥龍街129號",
        "neighborhood": [
            "芳和里"
        ],
        "phone": "2732-2332",
        "location": {
            "lat": 25.0200093,
            "lng": 121.549095
        }
    },
    {
        "name": "大安國小1年5班教室",
        "address": "臥龍街129號",
        "neighborhood": [
            "芳和里"
        ],
        "phone": "2732-2332",
        "location": {
            "lat": 25.0200093,
            "lng": 121.549095
        }
    },
    {
        "name": "大安國小1年4班教室",
        "address": "臥龍街129號",
        "neighborhood": [
            "芳和里"
        ],
        "phone": "2732-2332",
        "location": {
            "lat": 25.0200093,
            "lng": 121.549095
        }
    },
    {
        "name": "大安國小1年1班教室",
        "address": "臥龍街129號",
        "neighborhood": [
            "黎元里"
        ],
        "phone": "2732-2332",
        "location": {
            "lat": 25.0200093,
            "lng": 121.549095
        }
    },
    {
        "name": "大安國小1年2班教室",
        "address": "臥龍街129號",
        "neighborhood": [
            "黎元里"
        ],
        "phone": "2732-2332",
        "location": {
            "lat": 25.0200093,
            "lng": 121.549095
        }
    },
    {
        "name": "大安國小1年3班教室",
        "address": "臥龍街129號",
        "neighborhood": [
            "黎元里"
        ],
        "phone": "2732-2332",
        "location": {
            "lat": 25.0200093,
            "lng": 121.549095
        }
    },
    {
        "name": "芳和國中童軍教室",
        "address": "臥龍街170號",
        "neighborhood": [
            "黎元里"
        ],
        "phone": "2732-1961",
        "location": {
            "lat": 25.0186717,
            "lng": 121.5503197
        }
    },
    {
        "name": "海巡署人員研習中心餐廳1",
        "address": "臥龍街240之2號",
        "neighborhood": [
            "黎孝里"
        ],
        "phone": "2377-3065",
        "location": {
            "lat": 25.0184017,
            "lng": 121.5560645
        }
    },
    {
        "name": "海巡署人員研習中心餐廳2",
        "address": "臥龍街240之2號",
        "neighborhood": [
            "黎孝里"
        ],
        "phone": "2377-3065",
        "location": {
            "lat": 25.0184017,
            "lng": 121.5560645
        }
    },
    {
        "name": "海巡署人員研習中心會客室",
        "address": "臥龍街240之2號",
        "neighborhood": [
            "黎孝里"
        ],
        "phone": "2377-3065",
        "location": {
            "lat": 25.0184017,
            "lng": 121.5560645
        }
    },
    {
        "name": "基督教臺北福音堂",
        "address": "安居街35巷14號",
        "neighborhood": [
            "黎孝里"
        ],
        "phone": "2732-8273",
        "location": {
            "lat": 25.0194819,
            "lng": 121.5551097
        }
    },
    {
        "name": "育樂幼兒園",
        "address": "和平東路3段308巷40號",
        "neighborhood": [
            "黎孝里"
        ],
        "phone": "2735-5304",
        "location": {
            "lat": 25.0196251,
            "lng": 121.555367
        }
    },
    {
        "name": "基督教信義會和平教會",
        "address": "富陽街113號",
        "neighborhood": [
            "黎和里"
        ],
        "phone": "2735-4281",
        "location": {
            "lat": 25.0195719,
            "lng": 121.5567895
        }
    },
    {
        "name": "黎和里民活動場所",
        "address": "臥龍街286號",
        "neighborhood": [
            "黎和里"
        ],
        "phone": "2377-2353",
        "location": {
            "lat": 25.016868,
            "lng": 121.558873
        }
    },
    {
        "name": "都市更新案籌備處",
        "address": "臥龍街296-1號",
        "neighborhood": [
            "黎和里"
        ],
        "phone": "2735-6559",
        "location": {
            "lat": 25.016824,
            "lng": 121.559383
        }
    },
    {
        "name": "建安里民活動場所",
        "address": "敦化南路1段161巷69弄5號",
        "neighborhood": [
            "建安里"
        ],
        "phone": "2771-6279",
        "location": {
            "lat": 25.043901,
            "lng": 121.5525242
        }
    },
    {
        "name": "建安里民活動場所車庫",
        "address": "敦化南路1段161巷69弄5號",
        "neighborhood": [
            "建安里"
        ],
        "phone": "2771-6279",
        "location": {
            "lat": 25.043901,
            "lng": 121.5525242
        }
    },
    {
        "name": "中華基督教行道會臺北教會",
        "address": "忠孝東路4段181巷17號",
        "neighborhood": [
            "建安里"
        ],
        "phone": "2721-3242",
        "location": {
            "lat": 25.0426456,
            "lng": 121.5508836
        }
    },
    {
        "name": "仁愛國中8年25班教室",
        "address": "仁愛路4段130號",
        "neighborhood": [
            "建倫里"
        ],
        "phone": "2325-5823",
        "location": {
            "lat": 25.037534,
            "lng": 121.5506569
        }
    },
    {
        "name": "仁愛國中8年23班教室",
        "address": "仁愛路4段130號",
        "neighborhood": [
            "建倫里"
        ],
        "phone": "2325-5823",
        "location": {
            "lat": 25.037534,
            "lng": 121.5506569
        }
    },
    {
        "name": "仁愛國中8年22班教室",
        "address": "仁愛路4段130號",
        "neighborhood": [
            "建倫里"
        ],
        "phone": "2325-5823",
        "location": {
            "lat": 25.037534,
            "lng": 121.5506569
        }
    },
    {
        "name": "仁愛國中8年20班教室",
        "address": "仁愛路4段130號",
        "neighborhood": [
            "建倫里"
        ],
        "phone": "2325-5823",
        "location": {
            "lat": 25.037534,
            "lng": 121.5506569
        }
    },
    {
        "name": "仁愛國小6年1班教室",
        "address": "安和路1段60號",
        "neighborhood": [
            "敦安里"
        ],
        "phone": "2709-5010",
        "location": {
            "lat": 25.0357732,
            "lng": 121.55235
        }
    },
    {
        "name": "仁愛國小3年2班教室",
        "address": "安和路1段60號",
        "neighborhood": [
            "敦安里"
        ],
        "phone": "2709-5010",
        "location": {
            "lat": 25.0357732,
            "lng": 121.55235
        }
    },
    {
        "name": "仁愛國小3年4班教室",
        "address": "安和路1段60號",
        "neighborhood": [
            "敦安里"
        ],
        "phone": "2709-5010",
        "location": {
            "lat": 25.0357732,
            "lng": 121.55235
        }
    },
    {
        "name": "仁愛國小3年5班教室",
        "address": "安和路1段60號",
        "neighborhood": [
            "敦安里"
        ],
        "phone": "2709-5010",
        "location": {
            "lat": 25.0357732,
            "lng": 121.55235
        }
    },
    {
        "name": "光復國小1年9班教室",
        "address": "光復南路271號",
        "neighborhood": [
            "正聲里"
        ],
        "phone": "2758-5076",
        "location": {
            "lat": 25.0402704,
            "lng": 121.5578527
        }
    },
    {
        "name": "光復國小1年10班教室",
        "address": "光復南路271號",
        "neighborhood": [
            "正聲里"
        ],
        "phone": "2758-5076",
        "location": {
            "lat": 25.0402704,
            "lng": 121.5578527
        }
    },
    {
        "name": "光復國小1年11班教室",
        "address": "光復南路271號",
        "neighborhood": [
            "正聲里"
        ],
        "phone": "2758-5076",
        "location": {
            "lat": 25.0402704,
            "lng": 121.5578527
        }
    },
    {
        "name": "仁愛國小1年2班教室",
        "address": "安和路1段60號",
        "neighborhood": [
            "敦煌里"
        ],
        "phone": "2709-5010",
        "location": {
            "lat": 25.0357732,
            "lng": 121.55235
        }
    },
    {
        "name": "仁愛國小1年4班教室",
        "address": "安和路1段60號",
        "neighborhood": [
            "敦煌里"
        ],
        "phone": "2709-5010",
        "location": {
            "lat": 25.0357732,
            "lng": 121.55235
        }
    },
    {
        "name": "仁愛國小1年6班教室",
        "address": "安和路1段60號",
        "neighborhood": [
            "敦煌里"
        ],
        "phone": "2709-5010",
        "location": {
            "lat": 25.0357732,
            "lng": 121.55235
        }
    },
    {
        "name": "仁愛國小1年8班教室",
        "address": "安和路1段60號",
        "neighborhood": [
            "敦煌里"
        ],
        "phone": "2709-5010",
        "location": {
            "lat": 25.0357732,
            "lng": 121.55235
        }
    },
    {
        "name": "光復國小1年5班教室",
        "address": "光復南路271號",
        "neighborhood": [
            "華聲里"
        ],
        "phone": "2758-5076",
        "location": {
            "lat": 25.0402704,
            "lng": 121.5578527
        }
    },
    {
        "name": "光復國小1年6班教室",
        "address": "光復南路271號",
        "neighborhood": [
            "華聲里"
        ],
        "phone": "2758-5076",
        "location": {
            "lat": 25.0402704,
            "lng": 121.5578527
        }
    },
    {
        "name": "光復國小1年7班教室",
        "address": "光復南路271號",
        "neighborhood": [
            "華聲里"
        ],
        "phone": "2758-5076",
        "location": {
            "lat": 25.0402704,
            "lng": 121.5578527
        }
    },
    {
        "name": "光復國小1年1班教室",
        "address": "光復南路271號",
        "neighborhood": [
            "車層里"
        ],
        "phone": "2758-5076",
        "location": {
            "lat": 25.0402704,
            "lng": 121.5578527
        }
    },
    {
        "name": "光復國小1年2班教室",
        "address": "光復南路271號",
        "neighborhood": [
            "車層里"
        ],
        "phone": "2758-5076",
        "location": {
            "lat": 25.0402704,
            "lng": 121.5578527
        }
    },
    {
        "name": "光復國小1年3班教室",
        "address": "光復南路271號",
        "neighborhood": [
            "車層里"
        ],
        "phone": "2758-5076",
        "location": {
            "lat": 25.0402704,
            "lng": 121.5578527
        }
    },
    {
        "name": "光復國小1年4班教室",
        "address": "光復南路271號",
        "neighborhood": [
            "車層里"
        ],
        "phone": "2758-5076",
        "location": {
            "lat": 25.0402704,
            "lng": 121.5578527
        }
    },
    {
        "name": "仁愛世貿大樓",
        "address": "仁愛路4段376號",
        "neighborhood": [
            "光信里"
        ],
        "phone": "2706-6610",
        "location": {
            "lat": 25.0373876,
            "lng": 121.5557532
        }
    },
    {
        "name": "光信區民活動中心",
        "address": "延吉街236巷17號2樓",
        "neighborhood": [
            "光信里"
        ],
        "phone": "23511711轉8205",
        "location": {
            "lat": 25.0361296,
            "lng": 121.5550152
        }
    },
    {
        "name": "光目華福德幼兒園",
        "address": "延吉街241巷2弄11號",
        "neighborhood": [
            "光信里"
        ],
        "phone": "2701-9399",
        "location": {
            "lat": 25.0356372,
            "lng": 121.5560672
        }
    },
    {
        "name": "何嘉仁延吉幼兒園",
        "address": "延吉街250號",
        "neighborhood": [
            "光信里"
        ],
        "phone": "2708-6092",
        "location": {
            "lat": 25.034887,
            "lng": 121.555992
        }
    },
    {
        "name": "曉星幼兒園",
        "address": "延吉街254號",
        "neighborhood": [
            "光信里"
        ],
        "phone": "2703-3211",
        "location": {
            "lat": 25.034374,
            "lng": 121.556295
        }
    },
    {
        "name": "民族國中體健教室",
        "address": "羅斯福路4段113巷13號",
        "neighborhood": [
            "學府里"
        ],
        "phone": "2732-2935轉213",
        "location": {
            "lat": 25.0111861,
            "lng": 121.5388738
        }
    },
    {
        "name": "空軍退員宿舍（芳蘭山莊）",
        "address": "基隆路3段155巷148號",
        "neighborhood": [
            "學府里"
        ],
        "phone": "2733-0381",
        "location": {
            "lat": 25.012492,
            "lng": 121.548123
        }
    },
    {
        "name": "聯勤公館退員宿舍",
        "address": "基隆路3段155巷61號",
        "neighborhood": [
            "學府里"
        ],
        "phone": "2732-2322",
        "location": {
            "lat": 25.013495,
            "lng": 121.544593
        }
    }
]